link,rooms,price,flat_area,premium,district,address,latitude,longitude,subway,floor,type_of_house,type_of_rooms,type_of_condition,Unnamed: 14,prestigious,code type,closest_subway,subway_location,distance_to_subway,distance_category
https://rieltor.ua/flats-rent/view/10834307/,2.0,24500.0,109.0,ПРЕМІУМ,Дарницький,"Зарічна вул., 1-Б",50.39595032,30.59964752,,5,Українська цегла,Роздільне,Дизайнерський ремонт,,1,5,Славутич,"50.394167, 30.604167",0.3767705689115215,1
https://rieltor.ua/flats-rent/view/10832872/,2.0,24500.0,112.0,ПРЕМІУМ,Дарницький,"Зарічна вул., 1б",50.39595032,30.59964752,,5,Українська цегла,Кухня-вітальня,Дизайнерський ремонт,,1,5,Славутич,"50.394167, 30.604167",0.3767705689115215,1
https://rieltor.ua/flats-rent/view/10725408/,2.0,22000.0,94.0,ПРЕМІУМ,Печерський,"Лесі Українки бульв., 17",50.42968369,30.53692245,,4,Стара цегла,Роздільне,Євроремонт,,3,4,Печерська,"50.4275, 30.538889",0.2799360558056755,1
https://rieltor.ua/flats-rent/view/10766471/,2.0,22000.0,82.0,ПРЕМІУМ,Печерський,"Лесі Українки бульв., 17",50.42968369,30.53692245,,3,None,Роздільне,Дизайнерський ремонт,,3,5,Печерська,"50.4275, 30.538889",0.2799360558056755,1
https://rieltor.ua/flats-rent/view/10832868/,3.0,55410.0,161.0,ПРЕМІУМ,Печерський,"Предславинська вул., 42",50.41551208,30.5252018,Либідська,24,Українська цегла,Роздільне,Євроремонт,,3,4,"Палац ""Україна""","50.420833, 30.520833",0.667736706213934,1
https://rieltor.ua/flats-rent/view/10834583/,3.0,16000.0,118.0,ПРЕМІУМ,Печерський,"Лаврська вул., 4",50.43844986,30.55103111,,5,Стара цегла,Роздільне,Євроремонт,,3,4,Дніпро,"50.441111, 30.558611",0.6129542202410762,1
https://rieltor.ua/flats-rent/view/10770808/,1.0,15000.0,67.0,ПРЕМІУМ,Голосіївський,"Максимовича вул. (Трутенка Онуфрія), 24б",50.39334106,30.4744854,Васильківська,15,Бетонно монолітний,Студія,Дизайнерський ремонт,,2,5,Васильківська,"50.393333, 30.488056",0.9619968648155224,1
https://rieltor.ua/flats-rent/view/10831545/,3.0,16000.0,102.0,ПРЕМІУМ,Печерський,"Лаврська вул., 4",50.43844986,30.55103111,,5,Стара цегла,Суміжно-роздільна,Хороший стан,,3,3,Дніпро,"50.441111, 30.558611",0.6129542202410762,1
https://rieltor.ua/flats-rent/view/10618178/,1.0,12000.0,64.0,ПРЕМІУМ,Голосіївський,"Саксаганського вул., 54/56",50.43740463,30.50576782,,3,Типова панель,Роздільне,Хороший стан,,2,3,Університет,"50.444167, 30.505833",0.7519554034726006,1
https://rieltor.ua/flats-rent/view/10783286/,2.0,16000.0,132.0,ПРЕМІУМ,Шевченківський,"Артилерійський пров., 7а",50.46102142,30.42460442,,6,Українська цегла,Роздільне,Євроремонт,,3,4,Берестейська,"50.458333, 30.420833",0.400799298196468,1
https://rieltor.ua/flats-rent/view/10834517/,3.0,16000.0,114.0,ПРЕМІУМ,Печерський,"Лаврська вул., 4",50.43844986,30.55103111,,5,Стара цегла,Роздільне,Євроремонт,,3,4,Дніпро,"50.441111, 30.558611",0.6129542202410762,1
https://rieltor.ua/flats-rent/view/10834457/,1.0,12000.0,62.0,ПРЕМІУМ,Голосіївський,"Саксаганського вул., 54/56",50.43740463,30.50576782,,4,Українська цегла,Роздільне,Чудовий стан,,2,4,Університет,"50.444167, 30.505833",0.7519554034726006,1
https://rieltor.ua/flats-rent/view/10831906/,3.0,55410.0,145.0,ПРЕМІУМ,Печерський,"Предславинська вул., 42",50.41551208,30.5252018,Либідська,24,None,Роздільне,Дизайнерський ремонт,,3,5,"Палац ""Україна""","50.420833, 30.520833",0.667736706213934,1
https://rieltor.ua/flats-rent/view/10833767/,2.0,16000.0,129.0,ПРЕМІУМ,Шевченківський,"Артилерійський пров., 7А",50.46102142,30.42460442,,6,Українська цегла,Роздільне,Чудовий стан,,3,4,Берестейська,"50.458333, 30.420833",0.400799298196468,1
https://rieltor.ua/flats-rent/view/10829271/,1.0,6000.0,62.0,ПРЕМІУМ,Дніпровський,"Вершигори Петра вул., 1",50.49303818,30.57640648,,5,None,None,Задовільний стан,,1,1,Лівобережна,"50.451389, 30.598889",4.8968750157382495,2
https://rieltor.ua/flats-rent/view/10821576/,3.0,44328.0,140.0,ПРЕМІУМ,Печерський,"Хрещатик вул., 23",50.44501495,30.52206039,,8,Сталінка,Суміжно-роздільна,Дизайнерський ремонт,,3,5,Театральна,"50.444722, 30.518056",0.2854205845264849,1
https://rieltor.ua/flats-rent/view/10818942/,1.0,17000.0,70.0,ПРЕМІУМ,Шевченківський,"Гоголевская, 27",50.45363235,30.4850769,,6,Українська цегла,Роздільне,Чудовий стан,,3,4,Лук'янівська,"50.462222, 30.481667",0.9851573718087973,1
https://rieltor.ua/flats-rent/view/10829672/,1.0,15000.0,45.0,ПРЕМІУМ,Дарницький,"Осокорська вул., 2а",50.39749146,30.59981918,,22,Бетонно монолітний,Суміжна,Дизайнерський ремонт,,1,5,Славутич,"50.394167, 30.604167",0.4812835815589413,1
https://rieltor.ua/flats-rent/view/10833956/,2.0,22000.0,84.0,ПРЕМІУМ,Печерський,"Лесі Українки бульв., 17",50.42968369,30.53692245,,4,Стара цегла,Кухня-вітальня,Євроремонт,,3,4,Печерська,"50.4275, 30.538889",0.2799360558056755,1
https://rieltor.ua/flats-rent/view/10832324/,3.0,14000.0,128.0,ПРЕМІУМ,Шевченківський,"Берестейський просп. (Перемоги), 19",50.44892502,30.47268295,,6,Типова панель,Роздільне,Хороший стан,,3,3,Політехнічний інститут,"50.450833, 30.466111",0.5114020743279049,1
https://rieltor.ua/flats-rent/view/10828359/,2.0,55410.0,138.0,ПРЕМІУМ,Подільський,"Набережно-Рибальська дорога вул., 9",50.48041534,30.53529167,,2,None,Суміжно-роздільна,Дизайнерський ремонт,,2,5,Контрактова площа,"50.465, 30.516667",2.16227770449042,2
https://rieltor.ua/flats-rent/view/10833321/,2.0,19500.0,91.0,ПРЕМІУМ,Дарницький,"Зарічна вул., 3А",50.39686584,30.60003853,,4,Бетонно монолітний,Студія,Євроремонт,,1,4,Славутич,"50.394167, 30.604167",0.4191664021197528,1
https://rieltor.ua/flats-rent/view/10649811/,2.0,19000.0,124.0,ПРЕМІУМ,Шевченківський,"Софіївська вул., 2",50.45160675,30.51980972,Майдан Незалежності,5,Стара цегла,Суміжна,Євроремонт,,3,4,Майдан Незалежності,"50.45, 30.524167",0.3565051565212869,1
https://rieltor.ua/flats-rent/view/10795830/,3.0,22000.0,170.0,ПРЕМІУМ,Шевченківський,"Велика Васильківська вул., 20",50.43981171,30.51712227,Площа Льва Толстого,2,Стара цегла,Роздільне,Євроремонт,,3,4,Площа Льва Толстого,"50.439444, 30.516944",0.0427922295124143,1
https://rieltor.ua/flats-rent/view/10823308/,2.0,19000.0,118.0,ПРЕМІУМ,Шевченківський,"Софіївська вул., 4",50.45163727,30.52116394,Майдан Незалежності,5,Сталінка,Роздільне,Чудовий стан,,3,4,Майдан Незалежності,"50.45, 30.524167",0.2799164140223766,1
https://rieltor.ua/flats-rent/view/10794965/,3.0,23000.0,158.0,ПРЕМІУМ,Шевченківський,"Велика Васильківська вул., 20",50.43981171,30.51712227,Площа Льва Толстого,2,Сталінка,Роздільне,Євроремонт,,3,4,Площа Льва Толстого,"50.439444, 30.516944",0.0427922295124143,1
https://rieltor.ua/flats-rent/view/10828495/,4.0,48022.0,217.0,ПРЕМІУМ,Оболонський,"Володимира Івасюка просп. (Героїв Сталінграда), 2",50.4899559,30.5285511,,4,None,Суміжно-роздільна,Дизайнерський ремонт,,2,5,Почайна,"50.486667, 30.497778",2.207581537154847,2
https://rieltor.ua/flats-rent/view/10804188/,3.0,33246.0,234.0,ПРЕМІУМ,Печерський,"Ковпака вул., 17",50.41722488,30.52476311,Либідська,13,Кухня-вітальня,Кухня-вітальня,Євроремонт,,3,4,"Палац ""Україна""","50.420833, 30.520833",0.4883628740181915,1
https://rieltor.ua/flats-rent/view/10834031/,1.0,19500.0,90.0,ПРЕМІУМ,Дарницький,"Зарічна вул., 3А",50.39686584,30.60003853,,4,Бетонно монолітний,Роздільне,Дизайнерський ремонт,,1,5,Славутич,"50.394167, 30.604167",0.4191664021197528,1
https://rieltor.ua/flats-rent/view/10549406/,3.0,33246.0,207.0,ПРЕМІУМ,Голосіївський,"Юлії Здановської вул. (Ломоносова), 71",50.38745499,30.4716835,Виставковий центр,5,Бетонно монолітний,Роздільне,Чудовий стан,,2,4,Виставковий центр,"50.382581, 30.477536",0.6825718950388779,1
https://rieltor.ua/flats-rent/view/10809929/,1.0,17000.0,109.0,ПРЕМІУМ,Голосіївський,"Жилянська вул., 59",50.43771744,30.49960899,,6,Бетонно монолітний,Студія,Євроремонт,,2,4,Університет,"50.444167, 30.505833",0.841778424108724,1
https://rieltor.ua/flats-rent/view/10790376/,3.0,27705.0,175.0,ПРЕМІУМ,Печерський,"Старонаводницька вул., 4",50.42804718,30.54453468,,16,Бетонно монолітний,Роздільне,Дизайнерський ремонт,,3,5,Печерська,"50.4275, 30.538889",0.4045236239234362,1
https://rieltor.ua/flats-rent/view/10830107/,1.0,13500.0,68.0,ПРЕМІУМ,Голосіївський,"Максимовича вул. (Трутенка Онуфрія), 26б",50.39363098,30.47339249,Васильківська,15,Бетонно монолітний,Студія,Дизайнерський ремонт,,2,5,Васильківська,"50.393333, 30.488056",1.0399957253929426,1
https://rieltor.ua/flats-rent/view/10834161/,1.0,14500.0,58.0,ПРЕМІУМ,Печерський,"Михайла Бойчука вул. (Кіквідзе), 14",50.41415405,30.54849243,,3,Сталінка,Студія,Євроремонт,,3,4,Дружби народів,"50.418056, 30.545",0.4994822224685001,1
https://rieltor.ua/flats-rent/view/10832352/,2.0,59104.0,124.0,ПРЕМІУМ,Печерський,"Євгена Коновальця вул. (Щорса), 26а",50.42743301,30.53043365,,13,Бетонно монолітний,Суміжно-роздільна,Дизайнерський ремонт,,3,5,Печерська,"50.4275, 30.538889",0.5989999211429345,1
https://rieltor.ua/flats-rent/view/10814596/,2.0,36940.0,134.0,ПРЕМІУМ,Подільський,"Дегтярна вул., 6",50.45929718,30.51029205,Контрактова площа,2,None,None,Дизайнерський ремонт,,2,5,Контрактова площа,"50.465, 30.516667",0.7782951469829017,1
https://rieltor.ua/flats-rent/view/10823276/,3.0,29552.0,236.0,ПРЕМІУМ,Печерський,"Старонаводницька вул., 6",50.42844391,30.54623985,,14,None,None,Дизайнерський ремонт,,3,5,Печерська,"50.4275, 30.538889",0.5311810778413999,1
https://rieltor.ua/flats-rent/view/10819994/,5.0,36940.0,550.0,ПРЕМІУМ,Дніпровський,"Окіпної Раїси вул., 10",50.44779968,30.59031296,,20,None,Суміжно-роздільна,Дизайнерський ремонт,,1,5,Лівобережна,"50.451389, 30.598889",0.7266409439956849,1
https://rieltor.ua/flats-rent/view/10833864/,2.0,25998.0,148.0,ПРЕМІУМ,Печерський,"Василя Тютюнника вул. (Барбюса Анрі), 37/1",50.42111969,30.5263195,Палац Україна,8,Бетонно монолітний,Роздільне,Дизайнерський ремонт,,3,5,"Палац ""Україна""","50.420833, 30.520833",0.3900067764838144,1
https://rieltor.ua/flats-rent/view/10803385/,2.0,12000.0,148.0,ПРЕМІУМ,Святошинський,"Палладіна академіка просп., 25",50.46718216,30.35410118,,11,Бетонно монолітний,Роздільне,Хороший стан,,1,3,Житомирська,"50.456175, 30.365628",1.470980870862478,1
https://rieltor.ua/flats-rent/view/10831572/,1.0,11000.0,70.0,ПРЕМІУМ,Дарницький,"Бориса Гмирі вул., 17",50.39185715,30.63508797,,6,Українська панель,Роздільне,Перша здача,,1,2,Позняки,"50.398056, 30.633333",0.700416902737465,1
https://rieltor.ua/flats-rent/view/10424515/,2.0,36940.0,160.0,ПРЕМІУМ,Печерський,"Кловський узвiз, 7",50.43837738,30.53880501,,33,Бетонно монолітний,Суміжно-роздільна,Євроремонт,,3,4,Кловська,"50.436944, 30.531667",0.5300585104129268,1
https://rieltor.ua/flats-rent/view/10834792/,1.0,18000.0,88.0,ПРЕМІУМ,Дарницький,"Дніпровська наб., 18б",50.39897919,30.61259842,,18,Бетонно монолітний,Роздільне,Євроремонт,,1,4,Осокорки,"50.395278, 30.616111",0.4810070458707872,1
https://rieltor.ua/flats-rent/view/10802364/,2.0,51716.0,134.0,ПРЕМІУМ,Печерський,"Джона Маккейна вул. (Кудрі Івана), 1",50.41391373,30.52643967,Либідська,22,None,Суміжно-роздільна,Хороший стан,,3,3,"Палац ""Україна""","50.420833, 30.520833",0.8658877302573273,1
https://rieltor.ua/flats-rent/view/10832570/,2.0,23000.0,106.0,ПРЕМІУМ,Шевченківський,"Сікорського Ігоря вул. (Танкова), 4д",50.4651947,30.42817307,,18,None,Дизайнерський ремонт,Дизайнерський ремонт,,3,5,Берестейська,"50.458333, 30.420833",0.9230951584569702,1
https://rieltor.ua/flats-rent/view/10819147/,3.0,30000.0,156.0,ПРЕМІУМ,Печерський,"Лесі Українки бульв., 24",50.43009186,30.53510284,,5,Стара цегла,Роздільне,Євроремонт,,3,4,Печерська,"50.4275, 30.538889",0.3936851548464492,1
https://rieltor.ua/flats-rent/view/10814998/,1.0,38787.0,115.0,ПРЕМІУМ,Печерський,"Іоана Павла II вул. (Лумумби Патріса), 6",50.42055893,30.53048134,,3,None,Студія,Дизайнерський ремонт,,3,5,"Палац ""Україна""","50.420833, 30.520833",0.6842384330945177,1
https://rieltor.ua/flats-rent/view/10828842/,3.0,55410.0,222.0,ПРЕМІУМ,Печерський,"Драгомирова вул., 7",50.4109726,30.54658699,,18,None,Суміжно-роздільна,Дизайнерський ремонт,,3,5,Дружби народів,"50.418056, 30.545",0.7956246358627904,1
https://rieltor.ua/flats-rent/view/10826027/,4.0,19000.0,200.0,ПРЕМІУМ,Дніпровський,"Євгена Сверстюка вул. (Раскової Марини), 52В",50.44324112,30.60582733,,2,Українська цегла,Роздільне,Перша здача,,1,2,Лівобережна,"50.451389, 30.598889",1.030632465259413,1
https://rieltor.ua/flats-rent/view/10547475/,1.0,16623.0,45.0,ПРЕМІУМ,Печерський,"Драгомирова вул., 15",50.40879059,30.5449543,,30,Бетонно монолітний,Суміжна,Євроремонт,,3,4,Дружби народів,"50.418056, 30.545",1.030271674281363,1
https://rieltor.ua/flats-rent/view/10833813/,3.0,23000.0,140.0,ПРЕМІУМ,Солом'янський,"Патріарха Мстислава Скрипника вул., 48а",50.43392181,30.47941399,,10,None,Роздільне,Дизайнерський ремонт,,2,5,Вокзальна,"50.441667, 30.4875",1.034241689081147,1
https://rieltor.ua/flats-rent/view/10834225/,1.0,14500.0,62.0,ПРЕМІУМ,Печерський,"Михайла Бойчука вул. (Кіквідзе), 14",50.41415405,30.54849243,,3,Сталінка,Роздільне,Дизайнерський ремонт,,3,5,Дружби народів,"50.418056, 30.545",0.4994822224685001,1
https://rieltor.ua/flats-rent/view/10787034/,3.0,24000.0,146.0,ПРЕМІУМ,Солом'янський,"Патріарха Мстислава Скрипника вул., 48а",50.43392181,30.47941399,,10,Бетонно монолітний,Суміжно-роздільна,Дизайнерський ремонт,,2,5,Вокзальна,"50.441667, 30.4875",1.034241689081147,1
https://rieltor.ua/flats-rent/view/10834110/,1.0,14500.0,64.0,ПРЕМІУМ,Печерський,"Михайла Бойчука вул. (Кіквідзе), 14",50.41415405,30.54849243,,3,Стара цегла,Студія,Євроремонт,,3,4,Дружби народів,"50.418056, 30.545",0.4994822224685001,1
https://rieltor.ua/flats-rent/view/10827159/,2.0,51716.0,120.0,ПРЕМІУМ,Голосіївський,"Антоновича вул. (Горького), 44",50.43367767,30.51318169,Олімпійська,9,Бетонно монолітний,Студія,Дизайнерський ремонт,,2,5,Олімпійська,"50.431944, 30.516389",0.2979414882812133,1
https://rieltor.ua/flats-rent/view/10790328/,2.0,25858.0,95.0,ПРЕМІУМ,Шевченківський,"Перемоги, 5-В",50.4465332,30.48665428,,27,Українська цегла,Суміжно-роздільна,Дизайнерський ремонт,,3,5,Вокзальна,"50.441667, 30.4875",0.5444007696345233,1
https://rieltor.ua/flats-rent/view/10822646/,2.0,12000.0,82.0,ПРЕМІУМ,Печерський,"Лесі Українки бульв., 19",50.42848969,30.53848457,,8,Стара цегла,Суміжна,Хороший стан,,3,3,Печерська,"50.4275, 30.538889",0.1137163300329411,1
https://rieltor.ua/flats-rent/view/10802924/,2.0,23000.0,134.0,ПРЕМІУМ,Деснянський,"Радистів вул., 14",50.47623062,30.67006874,,3,Бетонно монолітний,Роздільне,Дизайнерський ремонт,,1,5,Лісова,"50.464639, 30.645556",2.161250475093899,2
https://rieltor.ua/flats-rent/view/10826282/,2.0,12500.0,82.0,ПРЕМІУМ,Печерський,"Лесі Українки бульв., 19",50.42848969,30.53848457,,9,None,Суміжна,Чудовий стан,,3,4,Печерська,"50.4275, 30.538889",0.1137163300329411,1
https://rieltor.ua/flats-rent/view/10819844/,2.0,14000.0,90.0,ПРЕМІУМ,Оболонський,"Героїв полку ""Азов"" вул. (Малиновського маршала), 27/23",50.50591278,30.50748444,Мінська,4,Українська цегла,Роздільне,Євроремонт,,2,4,Оболонь,"50.501111, 30.498056",0.8542380017745035,1
https://rieltor.ua/flats-rent/view/10830847/,1.0,6400.0,66.0,ПРЕМІУМ,Деснянський,"радунська, 11",50.53032303,30.59884644,,4,Роздільне,Роздільне,Хороший стан,,1,3,Героїв Дніпра,"50.5225, 30.498611",7.138750905355657,3
https://rieltor.ua/flats-rent/view/10825753/,4.0,129290.0,260.0,ПРЕМІУМ,Печерський,"Драгомирова вул., 11",50.40934753,30.54587746,,14,None,Суміжно-роздільна,Дизайнерський ремонт,,3,5,Дружби народів,"50.418056, 30.545",0.9703316890640064,1
https://rieltor.ua/flats-rent/view/10829861/,4.0,118208.0,290.0,ПРЕМІУМ,Печерський,"Василя Тютюнника вул. (Барбюса Анрі), 37",50.42152405,30.52565956,Палац Україна,7,None,Суміжно-роздільна,Дизайнерський ремонт,,3,5,"Палац ""Україна""","50.420833, 30.520833",0.3504730265189218,1
https://rieltor.ua/flats-rent/view/10550279/,3.0,29552.0,222.0,ПРЕМІУМ,Печерський,"Ковпака вул., 17",50.41722488,30.52476311,Либідська,5,Бетонно монолітний,Роздільне,Євроремонт,,3,4,"Палац ""Україна""","50.420833, 30.520833",0.4883628740181915,1
https://rieltor.ua/flats-rent/view/10821830/,1.0,22164.0,71.0,ПРЕМІУМ,Печерський,"Михайла Бойчука вул. (Кіквідзе), 41",50.4053154,30.55308914,,14,None,Суміжно-роздільна,Дизайнерський ремонт,,3,5,Видубичі,"50.402222, 30.560833",0.647709738998766,1
https://rieltor.ua/flats-rent/view/10826231/,2.0,36940.0,80.0,ПРЕМІУМ,Печерський,"Джона Маккейна вул. (Кудрі Івана), 7",50.41595459,30.53064728,Либідська,19,None,Суміжно-роздільна,Дизайнерський ремонт,,3,5,"Палац ""Україна""","50.420833, 30.520833",0.8819115256899043,1
https://rieltor.ua/flats-rent/view/10729782/,5.0,221640.0,376.0,ПРЕМІУМ,Шевченківський,"Володимирська вул., 20",50.45384598,30.51561165,,3,None,Роздільне,Дизайнерський ремонт,,3,5,Золоті ворота,"50.448333, 30.513333",0.633889688114568,1
https://rieltor.ua/flats-rent/view/10815002/,2.0,29552.0,107.0,ПРЕМІУМ,Шевченківський,"Глибочицька вул., 73",50.46321487,30.50396919,Контрактова площа,18,Українська цегла,Суміжно-роздільна,Дизайнерський ремонт,,3,5,Контрактова площа,"50.465, 30.516667",0.9204398337643128,1
https://rieltor.ua/flats-rent/view/10814942/,2.0,27705.0,100.0,ПРЕМІУМ,Шевченківський,"Берестейський просп. (Перемоги), 5-В",50.4465332,30.48665428,,26,Українська цегла,Суміжно-роздільна,Дизайнерський ремонт,,3,5,Вокзальна,"50.441667, 30.4875",0.5444007696345233,1
https://rieltor.ua/flats-rent/view/10803130/,1.0,24011.0,82.0,ПРЕМІУМ,Шевченківський,"Берестейський просп. (Перемоги), 5",50.44735336,30.48682785,,8,None,None,Дизайнерський ремонт,,3,5,Вокзальна,"50.441667, 30.4875",0.6340832565758922,1
https://rieltor.ua/flats-rent/view/10832763/,3.0,129290.0,224.0,ПРЕМІУМ,Печерський,"Драгомирова вул., 1-20а",50.4133873,30.54660797,,11,None,Роздільне,Дизайнерський ремонт,,3,5,Дружби народів,"50.418056, 30.545",0.5314908483083673,1
https://rieltor.ua/flats-rent/view/10828522/,3.0,59104.0,181.0,ПРЕМІУМ,Печерський,"Джона Маккейна вул. (Кудрі Івана), 7",50.41595459,30.53064728,Либідська,10,None,Суміжно-роздільна,Дизайнерський ремонт,,3,5,"Палац ""Україна""","50.420833, 30.520833",0.8819115256899043,1
https://rieltor.ua/flats-rent/view/10829171/,3.0,55410.0,177.0,ПРЕМІУМ,Печерський,"Джона Маккейна вул. (Кудрі Івана), 1б",50.41460419,30.52643013,Либідська,21,Українська цегла,Роздільне,Євроремонт,,3,4,"Палац ""Україна""","50.420833, 30.520833",0.7981082143573985,1
https://rieltor.ua/flats-rent/view/10825870/,1.0,9000.0,59.0,ПРЕМІУМ,Оболонський,"Оболонський просп., 16б",50.50774002,30.50016403,Мінська,2,None,None,Чудовий стан,,2,4,Мінська,"50.512222, 30.498333",0.514918324768759,1
https://rieltor.ua/flats-rent/view/10833157/,2.0,7000.0,96.0,ПРЕМІУМ,Дніпровський,"Князя Романа Мстиславича вул. (Жмаченка генерала), 16",50.46208572,30.60860062,,2,Українська цегла,Роздільне,Хороший стан,,1,3,Дарниця,"50.455556, 30.613056",0.7916160176246967,1
https://rieltor.ua/flats-rent/view/10832804/,1.0,17500.0,94.0,ПРЕМІУМ,Голосіївський,"Теремківська вул., 3 а",50.37120438,30.4552021,Теремки,19,None,Роздільне,Євроремонт,,2,4,Теремки,"50.367044, 30.454203",0.468008713656347,1
https://rieltor.ua/flats-rent/view/10613558/,1.0,10500.0,68.0,ПРЕМІУМ,Оболонський,"Петра Калнишевського вул. (Майорова Михайла), 14",50.52372742,30.46732712,,21,Бетонно монолітний,Студія,Дизайнерський ремонт,,2,5,Героїв Дніпра,"50.5225, 30.498611",2.2157915975486304,2
https://rieltor.ua/flats-rent/view/10826478/,2.0,15500.0,83.0,ПРЕМІУМ,Голосіївський,"Велика Васильківська вул. (Червоноармійська), 136",50.41396332,30.52380943,Либідська,3,Стара цегла,Роздільне,Чудовий стан,,2,4,"Палац ""Україна""","50.420833, 30.520833",0.7924494324916477,1
https://rieltor.ua/flats-rent/view/10818096/,1.0,7500.0,57.0,ПРЕМІУМ,Дніпровський,"Митрополита Андрея Шептицького вул. (Луначарського Анатолія), 24",50.45926285,30.59085083,,3,None,None,Хороший стан,,1,3,Лівобережна,"50.451389, 30.598889",1.0442190605525186,1
https://rieltor.ua/flats-rent/view/10818164/,1.0,15500.0,64.0,ПРЕМІУМ,Подільський,"Правди просп., 41а",50.50221252,30.42772102,,15,Бетонно монолітний,Роздільне,Євроремонт,,2,4,Сирець,"50.476111, 30.430556",2.9092779696175053,2
https://rieltor.ua/flats-rent/view/10818205/,1.0,15500.0,65.0,ПРЕМІУМ,Подільський,"Правди просп., 41а",50.50221252,30.42772102,,15,None,Євроремонт,Євроремонт,,2,4,Сирець,"50.476111, 30.430556",2.9092779696175053,2
https://rieltor.ua/flats-rent/view/10718323/,1.0,11000.0,52.0,ПРЕМІУМ,Дніпровський,"Каховська вул., 62а",50.46295929,30.5928688,,24,None,Євроремонт,Євроремонт,,1,4,Лівобережна,"50.451389, 30.598889",1.3553100882205524,1
https://rieltor.ua/flats-rent/view/10830065/,1.0,11000.0,52.0,ПРЕМІУМ,Дніпровський,"Каховська вул., 62",50.46349335,30.59081841,,24,Бетонно монолітний,Студія,Євроремонт,,1,4,Лівобережна,"50.451389, 30.598889",1.4621853053328702,1
https://rieltor.ua/flats-rent/view/10659976/,2.0,15000.0,124.0,ПРЕМІУМ,Оболонський,"Петра Калнишевського вул. (Майорова Михайла), 14",50.52564621,30.46795082,,21,Бетонно монолітний,Роздільне,Євроремонт,,2,4,Героїв Дніпра,"50.5225, 30.498611",2.1955003818265024,2
https://rieltor.ua/flats-rent/view/10815322/,2.0,48022.0,150.0,ПРЕМІУМ,Печерський,"Драгомирова вул., 7",50.4109726,30.54658699,,13,Бетонно монолітний,Суміжно-роздільна,Дизайнерський ремонт,,3,5,Дружби народів,"50.418056, 30.545",0.7956246358627904,1
https://rieltor.ua/flats-rent/view/10808436/,1.0,24000.0,77.0,ПРЕМІУМ,Печерський,"Менделєєва вул., 19",50.41066742,30.53593636,Либідська,3,Бетонно монолітний,Роздільне,Дизайнерський ремонт,,3,5,Дружби народів,"50.418056, 30.545",1.0427987214206298,1
https://rieltor.ua/flats-rent/view/10826178/,1.0,8500.0,55.0,ПРЕМІУМ,Подільський,"Свободи просп., 26а",50.51399231,30.42404747,,5,Бетонно монолітний,Роздільне,Чудовий стан,,2,4,Сирець,"50.476111, 30.430556",4.237294625173509,2
https://rieltor.ua/flats-rent/view/10834298/,3.0,16000.0,168.0,ПРЕМІУМ,Подільський,"Правди просп., 31А",50.50307846,30.4368,,8,None,Євроремонт,Євроремонт,,2,4,Сирець,"50.476111, 30.430556",3.0310052910481287,2
https://rieltor.ua/flats-rent/view/10834182/,2.0,55040.6,138.0,ПРЕМІУМ,Дарницький,"Трускавецька вул., 10 Д",50.40243912,30.60132217,,5,Бетонно монолітний,Роздільне,Перша здача,,1,2,Славутич,"50.394167, 30.604167",0.9416607845939028,1
https://rieltor.ua/flats-rent/view/10703222/,2.0,16000.0,122.0,ПРЕМІУМ,Оболонський,"Петра Калнишевського вул. (Майорова Михайла), 14",50.52360916,30.46744919,,21,None,Роздільне,Євроремонт,,2,4,Героїв Дніпра,"50.5225, 30.498611",2.206407080470663,2
https://rieltor.ua/flats-rent/view/10806604/,1.0,23000.0,70.0,ПРЕМІУМ,Печерський,"Менделєєва вул., 19",50.41061401,30.53590393,Либідська,3,Бетонно монолітний,Роздільне,Дизайнерський ремонт,,3,5,Дружби народів,"50.418056, 30.545",1.0488947538044584,1
https://rieltor.ua/flats-rent/view/10832851/,1.0,23000.0,67.0,ПРЕМІУМ,Печерський,"Менделєєва вул., 19",50.41062927,30.53597069,Либідська,2,Бетонно монолітний,Роздільне,Дизайнерський ремонт,,3,5,Дружби народів,"50.418056, 30.545",1.0446527440267523,1
https://rieltor.ua/flats-rent/view/10790309/,2.0,36940.0,96.0,ПРЕМІУМ,Печерський,"Драгомирова вул., 15б",50.40810013,30.5449295,,8,Бетонно монолітний,Роздільне,Перша здача,,3,2,Дружби народів,"50.418056, 30.545",1.1070535054997896,1
https://rieltor.ua/flats-rent/view/10832309/,2.0,51716.0,134.0,ПРЕМІУМ,Печерський,"Євгена Коновальця вул. (Щорса), 26а",50.42743301,30.53043365,,6,Бетонно монолітний,Суміжно-роздільна,Дизайнерський ремонт,,3,5,Печерська,"50.4275, 30.538889",0.5989999211429345,1
https://rieltor.ua/flats-rent/view/10776798/,3.0,59104.0,198.0,ПРЕМІУМ,Печерський,"Буслівська вул., 12",50.40743637,30.55675888,,15,Газоблок,Суміжно-роздільна,Дизайнерський ремонт,,3,5,Видубичі,"50.402222, 30.560833",0.6477272661898029,1
https://rieltor.ua/flats-rent/view/10776246/,3.0,30000.0,215.0,ПРЕМІУМ,Солом'янський,"Лобановського просп. (Червонозоряний), 4В",50.42233276,30.4624939,,23,Українська цегла,Роздільне,Дизайнерський ремонт,,2,5,Вокзальна,"50.441667, 30.4875",2.785509676467214,2
https://rieltor.ua/flats-rent/view/10661090/,3.0,31399.0,238.0,ПРЕМІУМ,Печерський,"Євгена Коновальця вул. (Щорса), 32Г",50.42557526,30.53094864,Палац Україна,15,Українська цегла,Роздільне,Дизайнерський ремонт,,3,5,Печерська,"50.4275, 30.538889",0.6018251969359822,1
https://rieltor.ua/flats-rent/view/10834379/,1.0,29552.0,106.0,ПРЕМІУМ,Печерський,"Предславинська вул., 53",50.41633606,30.52649879,Либідська,7,Бетонно монолітний,Суміжно-роздільна,Євроремонт,,3,4,"Палац ""Україна""","50.420833, 30.520833",0.6412318421085167,1
https://rieltor.ua/flats-rent/view/10820538/,1.0,22164.0,95.0,ПРЕМІУМ,Печерський,"Драгомирова вул., 12",50.41279221,30.54558754,,9,Бетонно монолітний,Роздільне,Євроремонт,,3,4,Дружби народів,"50.418056, 30.545",0.586785364926299,1
https://rieltor.ua/flats-rent/view/10785860/,2.0,48022.0,155.0,ПРЕМІУМ,Печерський,"Драгомирова вул., 7",50.4109726,30.54658699,,14,None,Роздільне,Дизайнерський ремонт,,3,5,Дружби народів,"50.418056, 30.545",0.7956246358627904,1
https://rieltor.ua/flats-rent/view/10757858/,3.0,48022.0,166.0,ПРЕМІУМ,Печерський,"Драгомирова вул., 16",50.41067886,30.54550934,,10,Бетонно монолітний,Суміжно-роздільна,Дизайнерський ремонт,,3,5,Дружби народів,"50.418056, 30.545",0.821094075922735,1
https://rieltor.ua/flats-rent/view/10621412/,3.0,12000.0,117.0,ПРЕМІУМ,Шевченківський,"Деревлянська вул. (Якіра), 16",50.46502304,30.46817589,,5,Сталінка,Суміжно-роздільна,Хороший стан,,3,3,Лук'янівська,"50.462222, 30.481667",1.0044522892841934,1
https://rieltor.ua/flats-rent/view/10812495/,2.0,15800.0,85.0,ПРЕМІУМ,Печерський,"Печерський узвiз, 11",50.43670273,30.53492928,,5,Стара цегла,Студія,Євроремонт,,3,4,Кловська,"50.436944, 30.531667",0.2325975865127043,1
https://rieltor.ua/flats-rent/view/10828037/,1.0,19000.0,93.0,ПРЕМІУМ,Солом'янський,"Патріарха Мстислава Скрипника вул., 48А",50.43391418,30.47864532,,16,Бетонно монолітний,Суміжно-роздільна,Дизайнерський ремонт,,2,5,Вокзальна,"50.441667, 30.4875",1.06603554299978,1
https://rieltor.ua/flats-rent/view/10833710/,2.0,47985.06,110.0,ПРЕМІУМ,Голосіївський,"Антоновича вул. (Горького), 44",50.4335556,30.51303101,Олімпійська,9,None,Перша здача,Перша здача,,2,2,Олімпійська,"50.431944, 30.516389",0.2977971113424503,1
https://rieltor.ua/flats-rent/view/10745319/,3.0,33246.0,131.0,ПРЕМІУМ,Печерський,"Бендукідзе Кахи вул., 2",50.41108704,30.54312706,,11,None,Роздільне,Хороший стан,,3,3,Дружби народів,"50.418056, 30.545",0.786194695434359,1
https://rieltor.ua/flats-rent/view/10804087/,2.0,33246.0,95.0,ПРЕМІУМ,Печерський,"Драгомирова вул., 19б",50.4071579,30.54362679,,4,Бетонно монолітний,Студія,Перша здача,,3,2,Дружби народів,"50.418056, 30.545",1.215713797109014,1
https://rieltor.ua/flats-rent/view/10828327/,4.0,110820.0,320.0,ПРЕМІУМ,Печерський,"Драгомирова вул., 11",50.40934753,30.54587746,,9,Бетонно монолітний,Роздільне,Дизайнерський ремонт,,3,5,Дружби народів,"50.418056, 30.545",0.9703316890640064,1
https://rieltor.ua/flats-rent/view/10816126/,3.0,55410.0,205.0,ПРЕМІУМ,Печерський,"Драгомирова вул., 16",50.41067886,30.54550934,,8,None,Дизайнерський ремонт,Дизайнерський ремонт,,3,5,Дружби народів,"50.418056, 30.545",0.821094075922735,1
https://rieltor.ua/flats-rent/view/10803923/,3.0,68339.0,240.0,ПРЕМІУМ,Печерський,"Драгомирова вул., 14",50.41180038,30.54562759,,11,None,Дизайнерський ремонт,Дизайнерський ремонт,,3,5,Дружби народів,"50.418056, 30.545",0.6970131691756506,1
https://rieltor.ua/flats-rent/view/10793915/,4.0,66492.0,228.0,ПРЕМІУМ,Печерський,"Драгомирова вул., 9",50.41012192,30.54658699,,16,None,Дизайнерський ремонт,Дизайнерський ремонт,,3,5,Дружби народів,"50.418056, 30.545",0.8893670414596836,1
https://rieltor.ua/flats-rent/view/10793847/,3.0,44328.0,200.0,ПРЕМІУМ,Печерський,"Драгомирова вул., 9",50.41012192,30.54658699,,28,None,Дизайнерський ремонт,Дизайнерський ремонт,,3,5,Дружби народів,"50.418056, 30.545",0.8893670414596836,1
https://rieltor.ua/flats-rent/view/10779071/,3.0,18000.0,204.9,ПРЕМІУМ,Солом'янський,"Вузівська вул., 5",50.42461395,30.46537781,,13,None,None,Чудовий стан,,2,4,Вокзальна,"50.441667, 30.4875",2.459828658202233,2
https://rieltor.ua/flats-rent/view/10802092/,2.0,27000.0,135.0,ПРЕМІУМ,Печерський,"Панаса Мирного вул., 28А",50.43444061,30.53705788,,9,Українська цегла,Роздільне,Євроремонт,,3,4,Кловська,"50.436944, 30.531667",0.4725087699023793,1
https://rieltor.ua/flats-rent/view/10831218/,1.0,24000.0,92.0,ПРЕМІУМ,Солом'янський,"Липківского Василя вул. (Урицького), 38",50.43258286,30.47502327,,4,Бетонно монолітний,Роздільне,Євроремонт,,2,4,Вокзальна,"50.441667, 30.4875",1.3420643374925616,1
https://rieltor.ua/flats-rent/view/9639034/,2.0,44328.0,102.0,ПРЕМІУМ,Печерський,"Драгомирова вул., 17",50.43330002,30.51670074,Площа Льва Толстого,10,Бетонно монолітний,Студія,Євроремонт,,3,4,Олімпійська,"50.431944, 30.516389",0.1523906806278969,1
https://rieltor.ua/flats-rent/view/10830473/,3.0,24950.0,145.0,ПРЕМІУМ,Шевченківський,"Салютна вул., 2б",50.47113037,30.40116882,,2,Бетонно монолітний,Роздільне,Хороший стан,,3,3,Нивки,"50.458653, 30.404042",1.4022457536579946,1
https://rieltor.ua/flats-rent/view/10831969/,2.0,24000.0,92.0,ПРЕМІУМ,Солом'янський,"Липківского Василя вул. (Урицького), 38",50.43258286,30.47502327,,4,None,None,Дизайнерський ремонт,,2,5,Вокзальна,"50.441667, 30.4875",1.3420643374925616,1
https://rieltor.ua/flats-rent/view/10833355/,1.0,33246.0,89.0,ПРЕМІУМ,Печерський,"Предславинська вул., 55а",50.41587067,30.52728844,Либідська,16,Бетонно монолітний,Роздільне,Чудовий стан,,3,4,"Палац ""Україна""","50.420833, 30.520833",0.7166995486931372,1
https://rieltor.ua/flats-rent/view/10832364/,1.0,14500.0,71.0,ПРЕМІУМ,Голосіївський,"Заболотного академіка вул., 1а",50.37034607,30.46151543,Теремки,21,Бетонно монолітний,Роздільне,Євроремонт,,2,4,Теремки,"50.367044, 30.454203",0.6354514363933303,1
https://rieltor.ua/flats-rent/view/10734282/,4.0,184700.0,347.0,ПРЕМІУМ,Печерський,"Драгомирова вул., 15",50.40879059,30.5449543,,27,None,None,Дизайнерський ремонт,,3,5,Дружби народів,"50.418056, 30.545",1.030271674281363,1
https://rieltor.ua/flats-rent/view/10815742/,4.0,129290.0,235.0,ПРЕМІУМ,Печерський,"Городецького архітектора вул., 17/1",50.44685745,30.52747154,,4,Дореволюційний,Суміжно-роздільна,Чудовий стан,,3,4,Хрещатик,"50.44726, 30.52483",0.1923233899491167,1
https://rieltor.ua/flats-rent/view/10831519/,2.0,24000.0,104.0,ПРЕМІУМ,Солом'янський,"Липківского Василя вул. (Урицького), 38",50.43258286,30.47502327,,4,None,None,Євроремонт,,2,4,Вокзальна,"50.441667, 30.4875",1.3420643374925616,1
https://rieltor.ua/flats-rent/view/10832458/,1.0,14500.0,71.0,ПРЕМІУМ,Голосіївський,"Заболотного академіка вул., 1б",50.35361862,30.49013901,,21,Бетонно монолітний,Роздільне,Євроремонт,,2,4,Теремки,"50.367044, 30.454203",2.954158063420773,2
https://rieltor.ua/flats-rent/view/10563180/,1.0,11000.0,84.0,ПРЕМІУМ,Оболонський,"Сім’ї Кульженків вул. (Дехтяренка Петра), 31а",50.52072525,30.4679451,,20,Бетонно монолітний,Роздільне,Дизайнерський ремонт,,2,5,Героїв Дніпра,"50.5225, 30.498611",2.1769289215574474,2
https://rieltor.ua/flats-rent/view/10832410/,3.0,29552.0,158.0,ПРЕМІУМ,Подільський,"Щекавицька вул., 53",50.47279739,30.51597214,Контрактова площа,2,Бетонно монолітний,Роздільне,Євроремонт,,2,4,Тараса Шевченка,"50.473056, 30.505",0.7770219177390486,1
https://rieltor.ua/flats-rent/view/10824759/,2.0,36940.0,138.0,ПРЕМІУМ,Печерський,"Євгена Коновальця вул. (Щорса), 36В",50.42510986,30.53247452,,18,Бетонно монолітний,Суміжно-роздільна,Дизайнерський ремонт,,3,5,Печерська,"50.4275, 30.538889",0.5264118392988201,1
https://rieltor.ua/flats-rent/view/10811777/,2.0,26000.0,102.0,ПРЕМІУМ,Печерський,"Інститутська вул., 18",50.44578934,30.53154945,,7,Сталінка,Суміжно-роздільна,Дизайнерський ремонт,,3,5,Хрещатик,"50.44726, 30.52483",0.5031138448737139,1
https://rieltor.ua/flats-rent/view/10757102/,2.0,17000.0,95.0,ПРЕМІУМ,Оболонський,"Володимира Івасюка просп. (Героїв Сталінграда), 2д",50.48987579,30.52966881,,13,Бетонно монолітний,Суміжно-роздільна,Євроремонт,,2,4,Почайна,"50.486667, 30.497778",2.284193716752399,2
https://rieltor.ua/flats-rent/view/10787551/,2.0,29552.0,132.0,ПРЕМІУМ,Печерський,"Саперне Поле вул., 12",50.41752243,30.52994537,Либідська,14,Бетонно монолітний,Роздільне,Дизайнерський ремонт,,3,5,"Палац ""Україна""","50.420833, 30.520833",0.7431830647510359,1
https://rieltor.ua/flats-rent/view/10701177/,2.0,12000.0,111.0,ПРЕМІУМ,Голосіївський,"Глушкова академіка просп., 9в",50.3710556,30.46410942,Іподром,15,Бетонно монолітний,Суміжна,Чудовий стан,,2,4,Іподром,"50.376556, 30.469117",0.7072400951180786,1
https://rieltor.ua/flats-rent/view/10762435/,3.0,14000.0,149.5,ПРЕМІУМ,Дарницький,"Вишняківська вул., 7А",50.39370346,30.64786339,,13,Типова панель,Роздільне,Чудовий стан,,1,4,Харківська,"50.400833, 30.652222",0.8508416384828236,1
https://rieltor.ua/flats-rent/view/10819838/,1.0,28000.0,78.0,ПРЕМІУМ,Шевченківський,"Бульварно-Кудрявська вул. (Воровського), 15б",50.45286179,30.50278282,,4,Стара цегла,Роздільне,Дизайнерський ремонт,,3,5,Золоті ворота,"50.448333, 30.513333",0.900872386274976,1
https://rieltor.ua/flats-rent/view/10832588/,2.0,16000.0,94.0,ПРЕМІУМ,Печерський,"Федорова Івана вул., 1",50.42779922,30.52073479,Олімпійська,8,Стара цегла,Роздільне,Євроремонт,,3,4,Олімпійська,"50.431944, 30.516389",0.5542266156910994,1
https://rieltor.ua/flats-rent/view/10819573/,1.0,11500.0,84.0,ПРЕМІУМ,Оболонський,"Сім’ї Кульженків вул. (Дехтяренка Петра), 31а",50.52126312,30.46808434,,20,None,Роздільне,Євроремонт,,2,4,Героїв Дніпра,"50.5225, 30.498611",2.1624876860121334,2
https://rieltor.ua/flats-rent/view/10803145/,3.0,14500.0,192.0,ПРЕМІУМ,Оболонський,"Балтійський пров., 3",50.49781036,30.46753502,,23,None,Роздільне,Євроремонт,,2,4,Оболонь,"50.501111, 30.498056",2.1897095005277007,2
https://rieltor.ua/flats-rent/view/10796751/,1.0,14000.0,62.0,ПРЕМІУМ,Печерський,"Підвисоцького професора вул., 16",50.41526413,30.55179024,,2,Українська цегла,Роздільне,Чудовий стан,,3,4,Дружби народів,"50.418056, 30.545",0.5725752781957977,1
https://rieltor.ua/flats-rent/view/10831484/,2.0,36940.0,105.0,ПРЕМІУМ,Печерський,"Драгомирова вул., 9",50.41012192,30.54658699,,18,Бетонно монолітний,Суміжно-роздільна,Дизайнерський ремонт,,3,5,Дружби народів,"50.418056, 30.545",0.8893670414596836,1
https://rieltor.ua/flats-rent/view/10821971/,2.0,11000.0,81.0,ПРЕМІУМ,Дніпровський,"Русанівський бульв., 9",50.43930054,30.59513664,,6,Типова панель,Роздільне,Євроремонт,,1,4,Лівобережна,"50.451389, 30.598889",1.370185197214619,1
https://rieltor.ua/flats-rent/view/10821636/,3.0,83115.0,270.0,ПРЕМІУМ,Печерський,"Драгомирова вул., 9",50.41012192,30.54658699,,28,None,Суміжно-роздільна,Дизайнерський ремонт,,3,5,Дружби народів,"50.418056, 30.545",0.8893670414596836,1
https://rieltor.ua/flats-rent/view/10779697/,2.0,31399.0,151.0,ПРЕМІУМ,Печерський,"Лесі Українки бульв., 7Б",50.43268585,30.53344536,,17,Українська цегла,Суміжно-роздільна,Дизайнерський ремонт,,3,5,Кловська,"50.436944, 30.531667",0.4899513124120394,1
https://rieltor.ua/flats-rent/view/10813122/,2.0,29552.0,130.0,ПРЕМІУМ,Печерський,"Саперне Поле вул., 14/55",50.41942215,30.53042984,Палац Україна,14,Бетонно монолітний,Роздільне,Євроремонт,,3,4,"Палац ""Україна""","50.420833, 30.520833",0.6977828561684223,1
https://rieltor.ua/flats-rent/view/10832836/,2.0,33246.0,85.0,ПРЕМІУМ,Печерський,"Предславинська вул., 55а",50.41587067,30.52728844,Либідська,16,Українська цегла,Кухня-вітальня,Євроремонт,,3,4,"Палац ""Україна""","50.420833, 30.520833",0.7166995486931372,1
https://rieltor.ua/flats-rent/view/10802241/,4.0,59104.0,260.0,ПРЕМІУМ,Шевченківський,"Глибочицька вул., 32в",50.46211243,30.49295616,,9,Бетонно монолітний,Роздільне,Дизайнерський ремонт,,3,5,Лук'янівська,"50.462222, 30.481667",0.7991995680283495,1
https://rieltor.ua/flats-rent/view/10577974/,4.0,110820.0,440.0,ПРЕМІУМ,Шевченківський,"Юрія Іллєнка вул. (Мельникова), 18б",50.46657944,30.47665596,,17,Українська цегла,Пентхаус,Чудовий стан,,3,4,Лук'янівська,"50.462222, 30.481667",0.6004753008106877,1
https://rieltor.ua/flats-rent/view/10802459/,1.0,9000.0,75.0,ПРЕМІУМ,Дніпровський,"Дніпровська наб., 13",50.42292786,30.5931778,,8,None,Роздільне,Хороший стан,,1,3,Гідропарк,"50.445556, 30.576944",2.766397630736988,2
https://rieltor.ua/flats-rent/view/10833142/,1.0,15000.0,90.0,ПРЕМІУМ,Солом'янський,"Новопольова вул., 2",50.43347549,30.443367,,24,Бетонно монолітний,Роздільне,Дизайнерський ремонт,,2,5,Шулявська,"50.455, 30.445278",2.39723876131424,2
https://rieltor.ua/flats-rent/view/10833159/,1.0,11000.0,46.0,ПРЕМІУМ,Солом'янський,"Польова вул., 73",50.43517685,30.4457016,,9,Бетонно монолітний,Студія,Дизайнерський ремонт,,2,5,Шулявська,"50.455, 30.445278",2.2044377917783944,2
https://rieltor.ua/flats-rent/view/10833175/,1.0,11000.0,60.0,ПРЕМІУМ,Солом'янський,"Кадетський Гай вул., 10",50.41169357,30.47330666,,22,Бетонно монолітний,Студія,Дизайнерський ремонт,,2,5,Васильківська,"50.393333, 30.488056",2.293665701078817,2
https://rieltor.ua/flats-rent/view/10833199/,1.0,12000.0,78.0,ПРЕМІУМ,Дніпровський,"Малишка Андрія вул., 15",50.46022415,30.61992455,,15,Бетонно монолітний,Роздільне,Дизайнерський ремонт,,1,5,Дарниця,"50.455556, 30.613056",0.7112413686358303,1
https://rieltor.ua/flats-rent/view/10833206/,1.0,14500.0,76.0,ПРЕМІУМ,Голосіївський,"Заболотного академіка вул., 1",50.37008667,30.4613781,Теремки,21,Бетонно монолітний,Роздільне,Дизайнерський ремонт,,2,5,Теремки,"50.367044, 30.454203",0.6110991359452291,1
https://rieltor.ua/flats-rent/view/10833231/,1.0,15000.0,81.0,ПРЕМІУМ,Дарницький,"Ахматової Анни вул., 22",50.40853119,30.62496376,,16,Бетонно монолітний,Роздільне,Дизайнерський ремонт,,1,5,Позняки,"50.398056, 30.633333",1.30712109406255,1
https://rieltor.ua/flats-rent/view/10833255/,1.0,9500.0,66.0,ПРЕМІУМ,Дарницький,"Світла вул., 3Д",50.39822006,30.69261169,,19,Бетонно монолітний,Роздільне,Дизайнерський ремонт,,1,5,Бориспільська,"50.403333, 30.682778",0.8994533774421619,1
https://rieltor.ua/flats-rent/view/10833274/,3.0,14000.0,131.0,ПРЕМІУМ,Шевченківський,"Берестейський просп. (Перемоги), 19",50.44892502,30.47268295,,6,Українська панель,Роздільне,Хороший стан,,3,3,Політехнічний інститут,"50.450833, 30.466111",0.5114020743279049,1
https://rieltor.ua/flats-rent/view/10832273/,2.0,35000.0,190.0,ПРЕМІУМ,Печерський,"Звіринецька вул., 59",50.40776825,30.55524063,,7,Бетонно монолітний,Роздільне,Дизайнерський ремонт,,3,5,Видубичі,"50.402222, 30.560833",0.7330889652254532,1
https://rieltor.ua/flats-rent/view/10833676/,1.0,17500.0,94.0,ПРЕМІУМ,Голосіївський,"Теремківська вул., 3а",50.37120438,30.4552021,Теремки,19,None,Євроремонт,Євроремонт,,2,4,Теремки,"50.367044, 30.454203",0.468008713656347,1
https://rieltor.ua/flats-rent/view/10833492/,1.0,12000.0,69.0,ПРЕМІУМ,Дніпровський,"Каховська вул., 62а",50.46286011,30.59282112,,4,None,Роздільне,Євроремонт,,1,4,Лівобережна,"50.451389, 30.598889",1.3459193222878758,1
https://rieltor.ua/flats-rent/view/10781079/,1.0,28000.0,75.0,ПРЕМІУМ,Шевченківський,"Бульварно-Кудрявська вул. (Воровського), 17",50.4528923,30.50244522,,4,Українська цегла,None,Дизайнерський ремонт,,3,5,Золоті ворота,"50.448333, 30.513333",0.9226486159114764,1
https://rieltor.ua/flats-rent/view/10834345/,1.0,9000.0,70.0,ПРЕМІУМ,Оболонський,"Гайдай Зої вул., 2",50.51415253,30.49315453,Мінська,4,None,None,Хороший стан,,2,3,Мінська,"50.512222, 30.498333",0.4244493110264506,1
https://rieltor.ua/flats-rent/view/10832515/,1.0,22164.0,84.0,ПРЕМІУМ,Печерський,"Миколи Міхновського бульв. (Дружби Народів), 14-16",50.41429901,30.54024315,,18,Бетонно монолітний,Роздільне,Чудовий стан,,3,4,Дружби народів,"50.418056, 30.545",0.5367676681254603,1
https://rieltor.ua/flats-rent/view/10823078/,2.0,40634.0,75.0,ПРЕМІУМ,Голосіївський,"Антоновича вул. (Горького), 44",50.43367767,30.51318169,Олімпійська,19,Стара цегла,Суміжно-роздільна,Дизайнерський ремонт,,2,5,Олімпійська,"50.431944, 30.516389",0.2979414882812133,1
https://rieltor.ua/flats-rent/view/10817193/,2.0,16000.0,141.0,ПРЕМІУМ,Голосіївський,"Максимовича вул. (Трутенка Онуфрія), 3г",50.39196777,30.47987175,Васильківська,10,None,None,Євроремонт,,2,4,Васильківська,"50.393333, 30.488056",0.5997075921370558,1
https://rieltor.ua/flats-rent/view/10799407/,3.0,13000.0,110.0,ПРЕМІУМ,Печерський,"Філатова академіка вул., 1/22",50.41749573,30.53066444,Либідська,9,None,Роздільне,Чудовий стан,,3,4,"Палац ""Україна""","50.420833, 30.520833",0.7892360543319332,1
https://rieltor.ua/flats-rent/view/10821090/,2.0,40634.0,85.0,ПРЕМІУМ,Голосіївський,"Антоновича вул. (Горького), 44",50.43367767,30.51318169,Олімпійська,19,None,Суміжно-роздільна,Дизайнерський ремонт,,2,5,Олімпійська,"50.431944, 30.516389",0.2979414882812133,1
https://rieltor.ua/flats-rent/view/10825130/,4.0,110820.0,300.0,ПРЕМІУМ,Печерський,"Драгомирова вул., 11",50.40934753,30.54587746,,9,Українська цегла,Роздільне,Дизайнерський ремонт,,3,5,Дружби народів,"50.418056, 30.545",0.9703316890640064,1
https://rieltor.ua/flats-rent/view/10791072/,2.0,18470.0,89.0,ПРЕМІУМ,Голосіївський,"Наддніпрянське шосе, 2",50.39185715,30.55728912,,2,None,Суміжно-роздільна,Дизайнерський ремонт,,2,5,Видубичі,"50.402222, 30.560833",1.1795765501676416,1
https://rieltor.ua/flats-rent/view/10790849/,2.0,29552.0,114.0,ПРЕМІУМ,Печерський,"Хрещатик вул., 21",50.44615555,30.52227402,,6,Бетонно монолітний,Суміжно-роздільна,Дизайнерський ремонт,,3,5,Хрещатик,"50.44726, 30.52483",0.2187182399409384,1
https://rieltor.ua/flats-rent/view/10779324/,2.0,36940.0,167.0,ПРЕМІУМ,Подільський,"Дегтярна вул., 29",50.45811081,30.50992203,Контрактова площа,7,Бетонно монолітний,Суміжно-роздільна,Дизайнерський ремонт,,2,5,Контрактова площа,"50.465, 30.516667",0.902652353170334,1
https://rieltor.ua/flats-rent/view/10829574/,4.0,84962.0,300.0,ПРЕМІУМ,Печерський,"Євгена Коновальця вул. (Щорса), 32б",50.42583847,30.5324955,,15,Українська цегла,Роздільне,Євроремонт,,3,4,Печерська,"50.4275, 30.538889",0.4891393506550638,1
https://rieltor.ua/flats-rent/view/10834211/,1.0,14000.0,53.0,ПРЕМІУМ,Дарницький,"Центральна вул., 19а",50.39164352,30.60383415,,4,Бетонно монолітний,Студія,Євроремонт,,1,4,Славутич,"50.394167, 30.604167",0.2815884884342025,1
https://rieltor.ua/flats-rent/view/10834222/,1.0,12500.0,55.0,ПРЕМІУМ,Шевченківський,"Салютна вул., 2",50.47180176,30.39841843,,7,Бетонно монолітний,Роздільне,Євроремонт,,3,4,Нивки,"50.458653, 30.404042",1.515288960888861,1
https://rieltor.ua/flats-rent/view/10784452/,1.0,13000.0,90.0,ПРЕМІУМ,Подільський,"Ярославська вул., 26",50.46885681,30.51366615,Тараса Шевченка,4,Дореволюційний,Роздільне,Задовільний стан,,2,1,Контрактова площа,"50.465, 30.516667",0.4785712544265693,1
https://rieltor.ua/flats-rent/view/10665444/,2.0,15000.0,94.0,ПРЕМІУМ,Голосіївський,"Велика Васильківська вул. (Червоноармійська), 124",50.41801834,30.52201843,Палац Україна,10,Українська цегла,Роздільне,Хороший стан,,2,3,"Палац ""Україна""","50.420833, 30.520833",0.3240489329457227,1
https://rieltor.ua/flats-rent/view/10791883/,2.0,30000.0,108.0,ПРЕМІУМ,Шевченківський,"Чорновола В'ячеслава вул., 27",50.45363235,30.4850769,,9,Бетонно монолітний,Суміжно-роздільна,Євроремонт,,3,4,Лук'янівська,"50.462222, 30.481667",0.9851573718087973,1
https://rieltor.ua/flats-rent/view/10827369/,1.0,12800.0,89.0,ПРЕМІУМ,Шевченківський,"Тбіліський пров., 1",50.45355606,30.46588516,,5,Бетонно монолітний,Роздільне,Хороший стан,,3,3,Політехнічний інститут,"50.450833, 30.466111",0.3032123442960044,1
https://rieltor.ua/flats-rent/view/10612725/,1.0,11000.0,68.0,ПРЕМІУМ,Дарницький,"Чавдар Єлизавети вул., 4",50.39219284,30.62329292,,22,Бетонно монолітний,Роздільне,Чудовий стан,,1,4,Осокорки,"50.395278, 30.616111",0.6139045387735413,1
https://rieltor.ua/flats-rent/view/10636332/,1.0,14000.0,87.0,ПРЕМІУМ,Дарницький,"Чавдар Єлизавети вул., 8",50.39093781,30.6239357,,7,Українська цегла,Студія,Дизайнерський ремонт,,1,5,Осокорки,"50.395278, 30.616111",0.7352427768528654,1
https://rieltor.ua/flats-rent/view/10834017/,2.0,11900.0,100.0,ПРЕМІУМ,Дарницький,"Урлівська вул., 3а",50.40390396,30.62150764,,7,None,Роздільне,Євроремонт,,1,4,Осокорки,"50.395278, 30.616111",1.0326209578009728,1
https://rieltor.ua/flats-rent/view/10826747/,1.0,5500.0,59.0,ПРЕМІУМ,Дніпровський,"Окіпної Раїси вул., 3б",50.4483223,30.59679794,,6,None,Хороший стан,Хороший стан,,1,3,Лівобережна,"50.451389, 30.598889",0.3717556342940064,1
https://rieltor.ua/flats-rent/view/10406867/,2.0,9000.0,104.3,ПРЕМІУМ,Дніпровський,"Пожарського вул., 8А",50.45417023,30.6241951,,10,Українська цегла,Роздільне,Хороший стан,,1,3,Чернігівська,"50.459722, 30.630833",0.775833292514939,1
https://rieltor.ua/flats-rent/view/10763175/,3.0,24000.0,92.0,ПРЕМІУМ,Святошинський,"Петрицького Анатолія вул., 17",50.44583511,30.38117409,,4,Дизайнерський ремонт,Дизайнерський ремонт,Дизайнерський ремонт,,1,5,Святошин,"50.457903, 30.390614",1.4991193327858088,1
https://rieltor.ua/flats-rent/view/10834633/,3.0,8000.0,110.0,ПРЕМІУМ,Деснянський,"Сержа Лифаря вул. (Сабурова), 1",50.50984192,30.61910248,,9,None,Роздільне,Євроремонт,,1,4,Лісова,"50.464639, 30.645556",5.363456190065269,3
https://rieltor.ua/flats-rent/view/10834625/,2.0,11000.0,80.0,ПРЕМІУМ,Дніпровський,"Березняківська вул., 24",50.42707443,30.61423111,,8,Типова панель,Роздільне,Чудовий стан,,1,4,Лівобережна,"50.451389, 30.598889",2.913810472599108,2
https://rieltor.ua/flats-rent/view/10340024/,3.0,40634.0,160.0,ПРЕМІУМ,Подільський,"Вишгородська вул., 45",50.50975418,30.44815063,,7,Бетонно монолітний,Роздільне,Євроремонт,,2,4,Мінська,"50.512222, 30.498333",3.559100798222582,2
https://rieltor.ua/flats-rent/view/10484955/,3.0,177000.0,380.0,ПРЕМІУМ,Шевченківський,"Десятинна вул., 13",50.45755386,30.51918411,Поштова площа,2,Українська цегла,Роздільне,Дизайнерський ремонт,,3,5,Поштова площа,"50.459167, 30.525556",0.4854287598874714,1
https://rieltor.ua/flats-rent/view/10833705/,3.0,47985.06,135.0,ПРЕМІУМ,Печерський,"Джона Маккейна вул. (Кудрі Івана), 7",50.41492844,30.53101158,Либідська,9,None,Дизайнерський ремонт,Дизайнерський ремонт,,3,5,"Палац ""Україна""","50.420833, 30.520833",0.9752697584054258,1
https://rieltor.ua/flats-rent/view/10833730/,3.0,17999.0,145.0,ПРЕМІУМ,Дніпровський,"Дніпровська наб., 1",50.4295311,30.5946579,,28,None,Євроремонт,Євроремонт,,1,4,Гідропарк,"50.445556, 30.576944",2.179216699133433,2
https://rieltor.ua/flats-rent/view/10833740/,2.0,49832.06,100.0,ПРЕМІУМ,Печерський,"Предславинська вул., 53",50.41633606,30.52649879,Либідська,16,None,Дизайнерський ремонт,Дизайнерський ремонт,,3,5,"Палац ""Україна""","50.420833, 30.520833",0.6412318421085167,1
https://rieltor.ua/flats-rent/view/10724904/,2.0,12000.0,89.0,ПРЕМІУМ,Дарницький,"Гришка Михайла вул., 10",50.39486313,30.6327076,,12,Бетонно монолітний,Роздільне,Чудовий стан,,1,4,Позняки,"50.398056, 30.633333",0.3577878911443344,1
https://rieltor.ua/flats-rent/view/10834144/,3.0,9000.0,125.0,ПРЕМІУМ,Оболонський,"Володимира Івасюка просп. (Героїв Сталінграда), 39",50.51473618,30.50802231,Мінська,7,Бетонно монолітний,Роздільне,Хороший стан,,2,3,Мінська,"50.512222, 30.498333",0.7399598465022341,1
https://rieltor.ua/flats-rent/view/10830150/,1.0,5500.0,55.0,ПРЕМІУМ,Деснянський,"Лісовий просп., 7",50.48046875,30.62208366,,4,None,Роздільне,Хороший стан,,1,3,Чернігівська,"50.459722, 30.630833",2.3885928876345,2
https://rieltor.ua/flats-rent/view/10829996/,1.0,7000.0,61.0,ПРЕМІУМ,Дніпровський,"Романа Шухевича просп. (Ватутіна), 22",50.49449158,30.59181786,,2,None,Роздільне,Євроремонт,,1,4,Дарниця,"50.455556, 30.613056",4.582888690922517,2
https://rieltor.ua/flats-rent/view/10830302/,2.0,24011.0,130.0,ПРЕМІУМ,Солом'янський,"Новопольова вул., 2",50.43251038,30.44280243,,19,None,Роздільне,Євроремонт,,2,4,Шулявська,"50.455, 30.445278",2.5068684899299467,2
https://rieltor.ua/flats-rent/view/10819735/,2.0,13000.0,135.7,ПРЕМІУМ,Святошинський,"Берестейський просп. (Перемоги), 131",50.45446014,30.35173607,,6,Бетонно монолітний,Роздільне,Хороший стан,,1,3,Житомирська,"50.456175, 30.365628",1.00180184524856,1
https://rieltor.ua/flats-rent/view/10421811/,2.0,9500.0,92.0,ПРЕМІУМ,Шевченківський,"Данила Щербаківського вул. (Щербакова), 53",50.47576523,30.40516472,,5,Сталінка,Роздільне,Євроремонт,,3,4,Сирець,"50.476111, 30.430556",1.7972175469778586,1
https://rieltor.ua/flats-rent/view/10834525/,3.0,15000.0,230.0,ПРЕМІУМ,Солом'янський,"Чоколівський бульв., 42 а",50.43857574,30.45181847,,21,Українська цегла,Роздільне,Хороший стан,,2,3,Політехнічний інститут,"50.450833, 30.466111",1.6976202624954564,1
https://rieltor.ua/flats-rent/view/10832256/,3.0,10000.0,147.0,ПРЕМІУМ,Дарницький,"Чавдар Єлизавети вул., 38",50.39126587,30.62709999,,14,Українська панель,Роздільне,Хороший стан,,1,3,Позняки,"50.398056, 30.633333",0.8748059540371294,1
https://rieltor.ua/flats-rent/view/10823304/,3.0,9000.0,119.0,ПРЕМІУМ,Деснянський,"Червоної Калини просп. (Маяковського Володимира), 55",50.51141357,30.61038589,,1,None,Роздільне,Чудовий стан,,1,4,Лісова,"50.464639, 30.645556",5.765618317312295,3
https://rieltor.ua/flats-rent/view/10738744/,1.0,8000.0,72.0,ПРЕМІУМ,Дарницький,"Руденко Лариси вул., 10в",50.39318848,30.64075279,,15,Бетонно монолітний,Роздільне,Хороший стан,,1,3,Позняки,"50.398056, 30.633333",0.7546978030278634,1
https://rieltor.ua/flats-rent/view/10686911/,2.0,6800.0,94.0,ПРЕМІУМ,Дарницький,"Бориса Гмирі вул., 9",50.39204788,30.62986565,,6,Українська цегла,Роздільне,Хороший стан,,1,3,Позняки,"50.398056, 30.633333",0.7118506614606414,1
https://rieltor.ua/flats-rent/view/9551145/,2.0,6990.0,84.0,ПРЕМІУМ,Солом'янський,"пер.Металлистов, 1",50.44610214,30.43933487,,8,Українська цегла,Роздільне,Хороший стан,,2,3,Шулявська,"50.455, 30.445278",1.075160503132719,1
https://rieltor.ua/flats-rent/view/10803367/,5.0,49000.0,278.0,ПРЕМІУМ,Шевченківський,"Дмитрівська вул., 75",50.45648956,30.48676682,,19,Бетонно монолітний,Роздільне,Дизайнерський ремонт,,3,5,Лук'янівська,"50.462222, 30.481667",0.7325523756215244,1
https://rieltor.ua/flats-rent/view/10809144/,1.0,8500.0,74.0,ПРЕМІУМ,Дніпровський,"Дніпровська наб., 13",50.42292786,30.5931778,,8,Українська цегла,Роздільне,Хороший стан,,1,3,Гідропарк,"50.445556, 30.576944",2.766397630736988,2
https://rieltor.ua/flats-rent/view/10823704/,2.0,18000.0,127.0,ПРЕМІУМ,Дніпровський,"Шумського Юрія вул., 1",50.42650986,30.60332108,,21,Бетонно монолітний,Суміжно-роздільна,Дизайнерський ремонт,,1,5,Лівобережна,"50.451389, 30.598889",2.7841836558390733,2
https://rieltor.ua/flats-rent/view/10801822/,2.0,20000.0,198.0,ПРЕМІУМ,Дніпровський,"Гашека Ярослава бульв., 18",50.43784332,30.63256645,,2,Сталінка,Роздільне,Дизайнерський ремонт,,1,5,Дарниця,"50.455556, 30.613056",2.4057686577867865,2
https://rieltor.ua/flats-rent/view/10834267/,3.0,25000.0,160.0,ПРЕМІУМ,Шевченківський,"Салютна вул., 2",50.47180176,30.39841843,,2,None,Суміжно-роздільна,Перша здача,,3,2,Нивки,"50.458653, 30.404042",1.515288960888861,1
https://rieltor.ua/flats-rent/view/10834235/,1.0,12500.0,57.0,ПРЕМІУМ,Шевченківський,"Салютна вул., 2",50.47180176,30.39841843,,7,None,Євроремонт,Євроремонт,,3,4,Нивки,"50.458653, 30.404042",1.515288960888861,1
https://rieltor.ua/flats-rent/view/10832982/,3.0,31399.0,142.0,ПРЕМІУМ,Подільський,"Костянтинівська, 20/14",50.46736145,30.51153374,Контрактова площа,4,Стара цегла,Роздільне,Дизайнерський ремонт,,2,5,Контрактова площа,"50.465, 30.516667",0.4482817917117193,1
https://rieltor.ua/flats-rent/view/10800337/,1.0,9000.0,73.0,ПРЕМІУМ,Дарницький,"Урлівська вул., 34",50.41002655,30.61767769,,14,Бетонно монолітний,Роздільне,Євроремонт,,1,4,Осокорки,"50.395278, 30.616111",1.643718703310758,1
https://rieltor.ua/flats-rent/view/10782678/,1.0,15000.0,77.0,ПРЕМІУМ,Печерський,"Банкова вул., 3",50.44605255,30.53000069,,4,Сталінка,Роздільне,Євроремонт,,3,4,Хрещатик,"50.44726, 30.52483",0.3899701987326598,1
https://rieltor.ua/flats-rent/view/10833938/,2.0,11500.0,80.0,ПРЕМІУМ,Шевченківський,"проспект Победы, 66 ",50.45742416,30.43121338,,1,None,Роздільне,Задовільний стан,,3,1,Берестейська,"50.458333, 30.420833",0.7417614459936416,1
https://rieltor.ua/flats-rent/view/10495516/,2.0,30000.0,140.0,ПРЕМІУМ,Печерський,"Лабораторний пров., 7",50.42786407,30.52527428,Олімпійська,6,Українська цегла,Роздільне,Дизайнерський ремонт,,3,5,Олімпійська,"50.431944, 30.516389",0.7758406315562303,1
https://rieltor.ua/flats-rent/view/10833267/,1.0,13000.0,72.0,ПРЕМІУМ,Оболонський,"Гулака Миколи вул., 4",50.51608658,30.45805359,,11,None,None,Дизайнерський ремонт,,2,5,Мінська,"50.512222, 30.498333",2.88029155181143,2
https://rieltor.ua/flats-rent/view/10819637/,2.0,13000.0,121.0,ПРЕМІУМ,Дніпровський,"Гашека Ярослава бульв., 20",50.43790817,30.63439941,,11,None,Роздільне,Євроремонт,,1,4,Чернігівська,"50.459722, 30.630833",2.4386963926750207,2
https://rieltor.ua/flats-rent/view/10432608/,1.0,34200.0,92.0,ПРЕМІУМ,Печерський,"Предславинська, 53",50.41633606,30.52649879,Либідська,7,None,Роздільне,Євроремонт,,3,4,"Палац ""Україна""","50.420833, 30.520833",0.6412318421085167,1
https://rieltor.ua/flats-rent/view/10833835/,1.0,10000.0,72.0,ПРЕМІУМ,Дарницький,"Урлівська вул., 23 В",50.41111755,30.61391449,,23,Українська цегла,Роздільне,Євроремонт,,1,4,Осокорки,"50.395278, 30.616111",1.7681440297998832,1
https://rieltor.ua/flats-rent/view/10707633/,3.0,18000.0,169.0,ПРЕМІУМ,Голосіївський,"Героїв Оборони вул., 10а",50.38275909,30.49168015,,20,None,None,Дизайнерський ремонт,,2,5,Виставковий центр,"50.382581, 30.477536",1.0030754820125392,1
https://rieltor.ua/flats-rent/view/10817736/,3.0,30000.0,194.0,ПРЕМІУМ,Печерський,"Шовковична вул., 36/7",50.44142914,30.5284481,,5,None,Євроремонт,Євроремонт,,3,4,Кловська,"50.436944, 30.531667",0.5483547199710903,1
https://rieltor.ua/flats-rent/view/10831726/,2.0,22164.0,122.0,ПРЕМІУМ,Печерський,"Чигоріна вул., 55",50.416008,30.53456879,,5,None,None,Хороший стан,,3,3,Дружби народів,"50.418056, 30.545",0.773369392472231,1
https://rieltor.ua/flats-rent/view/10833603/,1.0,31399.0,88.0,ПРЕМІУМ,Печерський,"Філатова академіка вул., 2/1",50.41821671,30.52953529,Либідська,8,Українська цегла,Суміжно-роздільна,Євроремонт,,3,4,"Палац ""Україна""","50.420833, 30.520833",0.6817380036755234,1
https://rieltor.ua/flats-rent/view/10830772/,2.0,18000.0,141.0,ПРЕМІУМ,Печерський,"Інститутська вул., 24/7",50.44420242,30.5370121,,2,Сталінка,Роздільне,Хороший стан,,3,3,Арсенальна,"50.443889, 30.545556",0.6060172368267425,1
https://rieltor.ua/flats-rent/view/10830721/,2.0,18000.0,113.0,ПРЕМІУМ,Шевченківський,"Хмельницького Богдана вул., 50б",50.44732666,30.50652885,,4,Стара цегла,Роздільне,Хороший стан,,3,3,Університет,"50.444167, 30.505833",0.3547764623318489,1
https://rieltor.ua/flats-rent/view/10245276/,2.0,28000.0,170.0,ПРЕМІУМ,Солом'янський,"Липківского Василя вул. (Урицького), 18",50.43360138,30.48425674,,18,Бетонно монолітний,Роздільне,Євроремонт,,2,4,Вокзальна,"50.441667, 30.4875",0.92580244540776,1
https://rieltor.ua/flats-rent/view/10706355/,2.0,19300.0,111.0,ПРЕМІУМ,Святошинський,"Берестейський просп. (Перемоги), 67",50.45797729,30.40586472,,16,Українська цегла,Роздільне,Дизайнерський ремонт,,1,5,Нивки,"50.458653, 30.404042",0.1493140442224552,1
https://rieltor.ua/flats-rent/view/10831203/,1.0,8000.0,79.0,ПРЕМІУМ,Деснянський,"Милославська вул., 47",50.53044128,30.59513855,,6,Бетонно монолітний,Роздільне,Хороший стан,,1,3,Героїв Дніпра,"50.5225, 30.498611",6.880337546054487,3
https://rieltor.ua/flats-rent/view/10785013/,1.0,36940.0,80.0,ПРЕМІУМ,Шевченківський,"Десятинна, 13",50.4574852,30.51929855,Контрактова площа,2,Дореволюційний,Студія,Дизайнерський ремонт,,3,5,Поштова площа,"50.459167, 30.525556",0.4808280507469158,1
https://rieltor.ua/flats-rent/view/10830606/,1.0,12000.0,77.0,ПРЕМІУМ,Дарницький,"Вірменська вул., 6",50.40637589,30.67076111,,15,Студія,Студія,Євроремонт,,1,4,Вирлиця,"50.403333, 30.666111",0.4723261463262947,1
https://rieltor.ua/flats-rent/view/10773651/,1.0,14000.0,51.0,ПРЕМІУМ,Дарницький,"Центральна вул., 19А",50.39164352,30.60383415,,4,None,Студія,Дизайнерський ремонт,,1,5,Славутич,"50.394167, 30.604167",0.2815884884342025,1
https://rieltor.ua/flats-rent/view/9839859/,2.0,33246.0,155.0,ПРЕМІУМ,Дарницький,"Завальна вул., 10г",,,,25,Бетонно монолітний,Роздільне,Євроремонт,,1,4,,,0.0,1
https://rieltor.ua/flats-rent/view/10832200/,1.0,11000.0,83.0,ПРЕМІУМ,Дарницький,"Пчілки Олени вул., 6а",50.41684341,30.63207245,,10,None,Роздільне,Євроремонт,,1,4,Позняки,"50.398056, 30.633333",2.0909737829341606,2
https://rieltor.ua/flats-rent/view/10829936/,1.0,11000.0,56.0,ПРЕМІУМ,Дарницький,"Центральна, 19",50.39164352,30.60320091,,9,Бетонно монолітний,Студія,Євроремонт,,1,4,Славутич,"50.394167, 30.604167",0.288834798813621,1
https://rieltor.ua/flats-rent/view/10588220/,2.0,10000.0,80.0,ПРЕМІУМ,Солом'янський,"Карела Чапека вул. (Фучіка Юліуса), 7",50.43946838,30.4722271,,5,Українська цегла,Суміжно-роздільна,Хороший стан,,2,3,Вокзальна,"50.441667, 30.4875",1.1088762337440887,1
https://rieltor.ua/flats-rent/view/10833132/,2.0,6500.0,81.0,ПРЕМІУМ,Солом'янський,"Василенка Миколи вул., 25",50.44089127,30.42460823,,3,None,None,Хороший стан,,2,3,Берестейська,"50.458333, 30.420833",1.9577656337247324,1
https://rieltor.ua/flats-rent/view/10828584/,2.0,12500.0,145.0,ПРЕМІУМ,Дарницький,"Бажана Миколи просп., 14",50.39513397,30.62280655,,16,None,None,Хороший стан,,1,3,Осокорки,"50.395278, 30.616111",0.4748874242490637,1
https://rieltor.ua/flats-rent/view/10828458/,3.0,29552.0,179.0,ПРЕМІУМ,Шевченківський,"Франка Івана вул., 4",50.45038986,30.50990677,,2,None,None,Євроремонт,,3,4,Золоті ворота,"50.448333, 30.513333",0.3334073196598293,1
https://rieltor.ua/flats-rent/view/10828430/,2.0,13500.0,166.0,ПРЕМІУМ,Подільський,"Вишгородська вул., 45",50.50922775,30.44924355,,21,None,Роздільне,Євроремонт,,2,4,Мінська,"50.512222, 30.498333",3.487173758654357,2
https://rieltor.ua/flats-rent/view/10782732/,2.0,12000.0,102.0,ПРЕМІУМ,Голосіївський,"Антоновича вул. (Горького), 39",50.4333992,30.51399803,Площа Льва Толстого,5,Дореволюційний,None,Хороший стан,,2,3,Олімпійська,"50.431944, 30.516389",0.2342275446086504,1
https://rieltor.ua/flats-rent/view/10827701/,1.0,9000.0,46.0,ПРЕМІУМ,Солом'янський,"Карпатська вул., 26",50.43252182,30.43797874,,2,None,Студія,Чудовий стан,,2,4,Шулявська,"50.455, 30.445278",2.552344917840481,2
https://rieltor.ua/flats-rent/view/10674540/,2.0,18000.0,93.0,ПРЕМІУМ,Солом'янський,"Любомира Гузара просп. (Комарова), 11",50.43378448,30.40422249,,10,Бетонно монолітний,Роздільне,Перша здача,,2,2,Нивки,"50.458653, 30.404042",2.765282790877172,2
https://rieltor.ua/flats-rent/view/10827606/,2.0,18000.0,78.0,ПРЕМІУМ,Подільський,"Турівська, 4",50.46506119,30.51515579,Контрактова площа,1,Типова панель,Суміжно-роздільна,Чудовий стан,,2,4,Контрактова площа,"50.465, 30.516667",0.1071811749012663,1
https://rieltor.ua/flats-rent/view/10485736/,1.0,7500.0,47.0,ПРЕМІУМ,Шевченківський,"Парково-Сирецька вул. (Шамрила Тимофія), 5 б",50.46738052,30.44359016,,1,Стара цегла,Суміжна,Хороший стан,,3,3,Дорогожичі,"50.473611, 30.449444",0.8072220002168874,1
https://rieltor.ua/flats-rent/view/10827560/,1.0,36570.6,100.0,ПРЕМІУМ,Печерський,"Джона Маккейна вул. (Кудрі Івана), 1Б",50.41460419,30.52643013,Либідська,8,Бетонно монолітний,Роздільне,Дизайнерський ремонт,,3,5,"Палац ""Україна""","50.420833, 30.520833",0.7981082143573985,1
https://rieltor.ua/flats-rent/view/10786140/,2.0,48022.0,115.0,ПРЕМІУМ,Голосіївський,"Антоновича вул. (Горького), 74",50.42612839,30.5140667,Олімпійська,10,Бетонно монолітний,Роздільне,Дизайнерський ремонт,,2,5,Олімпійська,"50.431944, 30.516389",0.6672612238956879,1
https://rieltor.ua/flats-rent/view/10531957/,4.0,110820.0,270.0,ПРЕМІУМ,Печерський,"Драгомирова вул., 11",50.40934753,30.54587746,,10,Бетонно монолітний,Роздільне,Дизайнерський ремонт,,3,5,Дружби народів,"50.418056, 30.545",0.9703316890640064,1
https://rieltor.ua/flats-rent/view/10792292/,2.0,49869.0,123.5,ПРЕМІУМ,Печерський,"Грушевського Михайла вул., 34/1",50.44400406,30.54163361,,3,Сталінка,Роздільне,Дизайнерський ремонт,,3,5,Арсенальна,"50.443889, 30.545556",0.2780490542085982,1
https://rieltor.ua/flats-rent/view/10808991/,1.0,33246.0,87.0,ПРЕМІУМ,Печерський,"Драгомирова вул., 17В",50.40750885,30.54467583,,6,Бетонно монолітний,Роздільне,Перша здача,,3,2,Дружби народів,"50.418056, 30.545",1.173014500031043,1
https://rieltor.ua/flats-rent/view/10813814/,2.0,18900.0,135.0,ПРЕМІУМ,Шевченківський,"Татарська вул., 7",50.46541977,30.48594093,,11,Бетонно монолітний,Роздільне,Дизайнерський ремонт,,3,5,Лук'янівська,"50.462222, 30.481667",0.4668544042559077,1
https://rieltor.ua/flats-rent/view/10793393/,2.0,11900.0,135.0,ПРЕМІУМ,Дарницький,"Урлівська вул., 20",50.40827179,30.62034035,,5,Бетонно монолітний,Роздільне,Євроремонт,,1,4,Позняки,"50.398056, 30.633333",1.46229514807589,1
https://rieltor.ua/flats-rent/view/10819243/,2.0,21000.0,116.0,ПРЕМІУМ,Голосіївський,"Льва Толстого вул., 27/35",50.44139862,30.50333595,,2,None,None,Чудовий стан,,2,4,Університет,"50.444167, 30.505833",0.355002736948746,1
https://rieltor.ua/flats-rent/view/10776106/,1.0,8000.0,81.0,ПРЕМІУМ,Деснянський,"Братиславська вул., 9а",50.47565079,30.6170826,,16,Українська панель,None,Чудовий стан,,1,4,Чернігівська,"50.459722, 30.630833",2.020963804320126,2
https://rieltor.ua/flats-rent/view/10833642/,1.0,8000.0,69.0,ПРЕМІУМ,Дарницький,"Вербицького архітектора вул., 8",50.41133881,30.65088654,,6,Бетонно монолітний,Роздільне,Хороший стан,,1,3,Харківська,"50.400833, 30.652222",1.1720203284720334,1
https://rieltor.ua/flats-rent/view/10833855/,3.0,36940.0,225.0,ПРЕМІУМ,Дарницький,"Бажана Миколи просп., 1а",50.39590073,30.59877777,,19,None,None,Євроремонт,,1,4,Славутич,"50.394167, 30.604167",0.4279063353038893,1
https://rieltor.ua/flats-rent/view/10824984/,2.0,25858.0,123.0,ПРЕМІУМ,Шевченківський,"Сікорського Ігоря вул. (Танкова), 4б",50.46575546,30.42952538,,3,None,Роздільне,Чудовий стан,,3,4,Берестейська,"50.458333, 30.420833",1.0294528442106787,1
https://rieltor.ua/flats-rent/view/10823943/,1.0,11000.0,70.0,ПРЕМІУМ,Дніпровський,"Каховська вул., 62",50.46349335,30.59081841,,18,Бетонно монолітний,Студія,Чудовий стан,,1,4,Лівобережна,"50.451389, 30.598889",1.4621853053328702,1
https://rieltor.ua/flats-rent/view/10783458/,3.0,33246.0,145.0,ПРЕМІУМ,Печерський,"Інститутська вул., 15/5",50.44621658,30.53435326,,3,Сталінка,Суміжно-роздільна,Дизайнерський ремонт,,3,5,Хрещатик,"50.44726, 30.52483",0.6842353236995622,1
https://rieltor.ua/flats-rent/view/10833550/,3.0,44328.0,157.0,ПРЕМІУМ,Печерський,"Іоана Павла II вул. (Лумумби Патріса), 6/1",50.42050171,30.53056717,Палац Україна,3,None,Роздільне,Хороший стан,,3,3,"Палац ""Україна""","50.420833, 30.520833",0.6906238369046059,1
https://rieltor.ua/flats-rent/view/10813086/,4.0,18000.0,132.0,ПРЕМІУМ,Дніпровський,"Верховної Ради бульв., 26",50.45021057,30.62639999,,3,None,Роздільне,Чудовий стан,,1,4,Чернігівська,"50.459722, 30.630833",1.1032050130284867,1
https://rieltor.ua/flats-rent/view/10760605/,2.0,7500.0,88.0,ПРЕМІУМ,Святошинський,"Леся Курбаса просп. (50-річчя Жовтня), 12в",50.42905426,30.37596321,,7,Українська панель,Суміжна,Хороший стан,,1,3,Житомирська,"50.456175, 30.365628",3.103229228336776,2
https://rieltor.ua/flats-rent/view/10579838/,2.0,20317.0,105.0,ПРЕМІУМ,Шевченківський,"Дмитрівська вул., 13а",50.44939423,30.49077415,,17,Українська цегла,Кухня-вітальня,Євроремонт,,3,4,Вокзальна,"50.441667, 30.4875",0.8899580731260273,1
https://rieltor.ua/flats-rent/view/10824861/,5.0,55410.0,397.0,ПРЕМІУМ,Печерський,"Старонаводницька вул., 6Б",50.42742157,30.54608727,,20,None,Роздільне,Дизайнерський ремонт,,3,5,Печерська,"50.4275, 30.538889",0.5099801683951352,1
https://rieltor.ua/flats-rent/view/10834271/,1.0,14000.0,75.0,ПРЕМІУМ,Святошинський,"Вернадського академіка бульв., 24",50.46253967,30.37446594,,10,Українська цегла,Роздільне,Дизайнерський ремонт,,1,5,Житомирська,"50.456175, 30.365628",0.9446075737123304,1
https://rieltor.ua/flats-rent/view/10827949/,2.0,10500.0,107.0,ПРЕМІУМ,Дніпровський,"Рогозівська вул., 1а",50.45102692,30.67489624,,3,Бетонно монолітний,Роздільне,Євроремонт,,1,4,Лісова,"50.464639, 30.645556",2.5700383418411854,2
https://rieltor.ua/flats-rent/view/10828825/,1.0,11500.0,50.0,ПРЕМІУМ,Печерський,"Василя Тютюнника вул. (Барбюса Анрі), 47",50.41896439,30.52773857,Палац Україна,5,Стара цегла,Роздільне,Євроремонт,,3,4,"Палац ""Україна""","50.420833, 30.520833",0.531542780362707,1
https://rieltor.ua/flats-rent/view/10794391/,1.0,29552.0,89.0,ПРЕМІУМ,Голосіївський,"Антоновича вул. (Горького), 109",50.42287827,30.51711845,Палац Україна,16,None,None,Дизайнерський ремонт,,2,5,"Палац ""Україна""","50.420833, 30.520833",0.347813890893561,1
https://rieltor.ua/flats-rent/view/10114327/,2.0,31399.0,127.5,ПРЕМІУМ,Шевченківський,"Глибочицька вул., 32Б",,,,13,Бетонно монолітний,Роздільне,Євроремонт,,3,4,,,0.0,1
https://rieltor.ua/flats-rent/view/10802836/,2.0,12000.0,107.85,ПРЕМІУМ,Дарницький,"Срібнокільська вул., 8",50.39965057,30.62611771,,4,Типова панель,Роздільне,Хороший стан,,1,3,Позняки,"50.398056, 30.633333",0.541284154905573,1
https://rieltor.ua/flats-rent/view/10826023/,2.0,166230.0,200.0,ПРЕМІУМ,Печерський,"Лабораторний пров., 7",50.42786407,30.52527428,Олімпійська,23,Бетонно монолітний,Пентхаус,Дизайнерський ремонт,,3,5,Олімпійська,"50.431944, 30.516389",0.7758406315562303,1
https://rieltor.ua/flats-rent/view/10825107/,2.0,59104.0,152.0,ПРЕМІУМ,Печерський,"Лабораторний пров., 7",50.42786407,30.52527428,Олімпійська,16,Бетонно монолітний,Роздільне,Дизайнерський ремонт,,3,5,Олімпійська,"50.431944, 30.516389",0.7758406315562303,1
https://rieltor.ua/flats-rent/view/10816728/,1.0,44328.0,100.0,ПРЕМІУМ,Печерський,"Підвисоцького професора вул., 4в",50.41242218,30.54315186,,19,Бетонно монолітний,Студія,Дизайнерський ремонт,,3,5,Дружби народів,"50.418056, 30.545",0.6399925829227262,1
https://rieltor.ua/flats-rent/view/10215891/,2.0,147760.0,190.0,ПРЕМІУМ,Печерський,"Лабораторний пров., 7",50.42737579,30.52586746,Олімпійська,24,Бетонно монолітний,Пентхаус,Євроремонт,,3,4,"Палац ""Україна""","50.420833, 30.520833",0.8102430114054402,1
https://rieltor.ua/flats-rent/view/10767029/,3.0,14500.0,177.0,ПРЕМІУМ,Оболонський,"Балтійський пров., 3",50.49781036,30.46753502,,23,Бетонно монолітний,Роздільне,Перша здача,,2,2,Оболонь,"50.501111, 30.498056",2.1897095005277007,2
https://rieltor.ua/flats-rent/view/10566776/,2.0,33000.0,148.5,ПРЕМІУМ,Печерський,"Миколи Міхновського бульв. (Дружби Народів), 14-16",50.4140358,30.53945923,,20,Українська цегла,Суміжно-роздільна,Дизайнерський ремонт,,3,5,Дружби народів,"50.418056, 30.545",0.5949428785206452,1
https://rieltor.ua/flats-rent/view/10552812/,1.0,10000.0,71.0,ПРЕМІУМ,Дарницький,"Пчілки Олени вул., 2- Б",50.41721344,30.62572479,,2,Типова панель,Роздільне,Хороший стан,,1,3,Позняки,"50.398056, 30.633333",2.1973847512024847,2
https://rieltor.ua/flats-rent/view/10827458/,1.0,44328.0,115.0,ПРЕМІУМ,Печерський,"Іоана Павла II вул. (Лумумби Патріса), 12",50.41983414,30.53299332,Палац Україна,9,Бетонно монолітний,Роздільне,Чудовий стан,,3,4,"Палац ""Україна""","50.420833, 30.520833",0.8686630836563356,1
https://rieltor.ua/flats-rent/view/10831947/,3.0,55410.0,155.0,ПРЕМІУМ,Печерський,"Предславинська вул., 42",50.41551208,30.5252018,Либідська,24,Бетонно монолітний,Кухня-вітальня,Дизайнерський ремонт,,3,5,"Палац ""Україна""","50.420833, 30.520833",0.667736706213934,1
https://rieltor.ua/flats-rent/view/10824182/,2.0,59104.0,179.0,ПРЕМІУМ,Шевченківський,"Назарівська вул. (Вєтрова), 11",50.44282913,30.49997902,,3,Українська цегла,Роздільне,Євроремонт,,3,4,Університет,"50.444167, 30.505833",0.4404244530736651,1
https://rieltor.ua/flats-rent/view/10827902/,2.0,17000.0,136.0,ПРЕМІУМ,Дніпровський,"Регенераторна вул., 4",50.43754959,30.62131691,,4,None,Суміжно-роздільна,Хороший стан,,1,3,Дарниця,"50.455556, 30.613056",2.0859171345173384,2
https://rieltor.ua/flats-rent/view/10797319/,3.0,59104.0,173.0,ПРЕМІУМ,Печерський,"Князів Острозьких вул. (Московська), 5/2б",50.44142532,30.54555893,,4,Дореволюційний,Студія,Дизайнерський ремонт,,3,5,Арсенальна,"50.443889, 30.545556",0.2739487954501388,1
https://rieltor.ua/flats-rent/view/10811448/,1.0,16000.0,77.0,ПРЕМІУМ,Голосіївський,"Заболотного академіка вул., 1Б",50.37073898,30.46164513,Іподром,25,Бетонно монолітний,Роздільне,Дизайнерський ремонт,,2,5,Теремки,"50.367044, 30.454203",0.668890705274191,1
https://rieltor.ua/flats-rent/view/10793246/,2.0,15000.0,95.0,ПРЕМІУМ,Печерський,"Євгена Коновальця вул. (Щорса), 37",50.42713928,30.53526878,,3,Типова панель,Роздільне,Євроремонт,,3,4,Печерська,"50.4275, 30.538889",0.2595649811887499,1
https://rieltor.ua/flats-rent/view/10833784/,3.0,25000.0,174.0,ПРЕМІУМ,Шевченківський,"Дмитрівська вул., 82",50.45497513,30.48839378,,13,Українська цегла,Роздільне,Хороший стан,,3,3,Лук'янівська,"50.462222, 30.481667",0.9360010707186956,1
https://rieltor.ua/flats-rent/view/10817648/,1.0,10500.0,65.0,ПРЕМІУМ,Дарницький,"Ісмаїла Гаспринського вул. (Сормовська), 3",50.4280014,30.64779282,,14,Бетонно монолітний,Студія,Чудовий стан,,1,4,Вирлиця,"50.403333, 30.666111",3.034581145856217,2
https://rieltor.ua/flats-rent/view/10786197/,2.0,20000.0,163.0,ПРЕМІУМ,Печерський,"Євгена Коновальця вул. (Щорса), 44а",50.4232254,30.53857231,,20,Бетонно монолітний,Роздільне,Дизайнерський ремонт,,3,5,Печерська,"50.4275, 30.538889",0.475842982884079,1
https://rieltor.ua/flats-rent/view/10832771/,2.0,29552.0,127.0,ПРЕМІУМ,Печерський,"Саперне Поле вул., 14/55",50.41942215,30.53042984,Палац Україна,14,Бетонно монолітний,Суміжна,Євроремонт,,3,4,"Палац ""Україна""","50.420833, 30.520833",0.6977828561684223,1
https://rieltor.ua/flats-rent/view/10827320/,1.0,20000.0,80.0,ПРЕМІУМ,Шевченківський,"Шолуденка вул., 1 а",50.45090866,30.47659874,,16,Бетонно монолітний,Роздільне,Хороший стан,,3,3,Політехнічний інститут,"50.450833, 30.466111",0.7426028919865822,1
https://rieltor.ua/flats-rent/view/10825741/,2.0,40634.0,140.0,ПРЕМІУМ,Шевченківський,"Глибочицька вул., 32б",50.46211243,30.4941864,,5,None,Роздільне,Дизайнерський ремонт,,3,5,Лук'янівська,"50.462222, 30.481667",0.8862733625478968,1
https://rieltor.ua/flats-rent/view/10632190/,1.0,10500.0,73.0,ПРЕМІУМ,Дарницький,"Драгоманова вул., 8",50.41436768,30.63573647,,3,Українська панель,Роздільне,Чудовий стан,,1,4,Позняки,"50.398056, 30.633333",1.8217564172485687,1
https://rieltor.ua/flats-rent/view/10827019/,3.0,29552.0,150.0,ПРЕМІУМ,Шевченківський,"Софіївська вул., 25а",50.45223236,30.51700211,,3,Дореволюційний,Суміжно-роздільна,Чудовий стан,,3,4,Золоті ворота,"50.448333, 30.513333",0.5054575860819246,1
https://rieltor.ua/flats-rent/view/10407719/,4.0,35093.0,250.0,ПРЕМІУМ,Печерський,"Хрещатик вул., 15",50.44762802,30.52567863,,2,Сталінка,Роздільне,Чудовий стан,,3,4,Хрещатик,"50.44726, 30.52483",0.0727002262476681,1
https://rieltor.ua/flats-rent/view/10611362/,3.0,8000.0,132.7,ПРЕМІУМ,Дніпровський,"Митрополита Андрея Шептицького вул. (Луначарського Анатолія), 24",50.45926285,30.59085083,,8,Типова панель,Роздільне,Хороший стан,,1,3,Лівобережна,"50.451389, 30.598889",1.0442190605525186,1
https://rieltor.ua/flats-rent/view/10817548/,3.0,36940.0,160.0,ПРЕМІУМ,Шевченківський,"Хмельницького Богдана вул., 58а",50.44807053,30.50549698,,14,Українська цегла,Суміжна,Чудовий стан,,3,4,Університет,"50.444167, 30.505833",0.4347043796309879,1
https://rieltor.ua/flats-rent/view/10472537/,5.0,55410.0,397.0,ПРЕМІУМ,Печерський,"Старонаводницька вул., 6Б",50.42742157,30.54608727,,20,None,Роздільне,Чудовий стан,,3,4,Печерська,"50.4275, 30.538889",0.5099801683951352,1
https://rieltor.ua/flats-rent/view/10351333/,4.0,92350.0,365.0,ПРЕМІУМ,Печерський,"Мазепи Івана вул. (Січневого Повстання), 16",50.44482803,30.54499626,,7,None,Роздільне,Дизайнерський ремонт,,3,5,Арсенальна,"50.443889, 30.545556",0.1116852951752738,1
https://rieltor.ua/flats-rent/view/10347227/,3.0,84962.0,335.0,ПРЕМІУМ,Печерський,"Мазепи Івана вул. (Січневого Повстання), 10",50.44200134,30.54773712,,5,None,Роздільне,Чудовий стан,,3,4,Арсенальна,"50.443889, 30.545556",0.2606017996644231,1
https://rieltor.ua/flats-rent/view/9148729/,3.0,44328.0,264.0,ПРЕМІУМ,Печерський,"Лесі Українки бульв., 7б",,,,9,Українська цегла,Роздільне,Євроремонт,,3,4,,,0.0,1
https://rieltor.ua/flats-rent/view/10831482/,3.0,62428.6,199.0,ПРЕМІУМ,Дніпровський,"Окіпної Раїси вул., 18",50.4479332,30.58862495,,8,Бетонно монолітний,Роздільне,Дизайнерський ремонт,,1,5,Лівобережна,"50.451389, 30.598889",0.8220746724673257,1
https://rieltor.ua/flats-rent/view/10813412/,3.0,12000.0,107.0,ПРЕМІУМ,Дніпровський,"Митрополита Андрея Шептицького вул. (Луначарського Анатолія), 24",50.45926285,30.59085083,,7,Типова панель,Суміжно-роздільна,Хороший стан,,1,3,Лівобережна,"50.451389, 30.598889",1.0442190605525186,1
https://rieltor.ua/flats-rent/view/10812286/,2.0,12000.0,81.0,ПРЕМІУМ,Голосіївський,"Коломийський пров., 11",50.39070892,30.49214363,Васильківська,5,Стара цегла,Суміжно-роздільна,Євроремонт,,2,4,Васильківська,"50.393333, 30.488056",0.4112256922701721,1
https://rieltor.ua/flats-rent/view/10820703/,1.0,4500.0,63.0,ПРЕМІУМ,Святошинський,"Булгакова вул., 2",50.40960312,30.40182686,,6,None,None,Хороший стан,,1,3,Святошин,"50.457903, 30.390614",5.429103195665286,3
https://rieltor.ua/flats-rent/view/10829401/,3.0,132984.0,320.0,ПРЕМІУМ,Шевченківський,"Назарівська вул. (Вєтрова), 19",50.44355774,30.49939919,,3,None,None,Дизайнерський ремонт,,3,5,Університет,"50.444167, 30.505833",0.4606048694285349,1
https://rieltor.ua/flats-rent/view/10509620/,4.0,84962.0,385.0,ПРЕМІУМ,Печерський,"Круглоуніверситетська вул., 18/2",50.44242096,30.52625465,,5,Сталінка,None,Дизайнерський ремонт,,3,5,Хрещатик,"50.44726, 30.52483",0.5474518754018589,1
https://rieltor.ua/flats-rent/view/10477943/,2.0,40634.0,110.0,ПРЕМІУМ,Печерський,"Хрещатик вул., 25",50.44446182,30.52277946,,8,None,None,Дизайнерський ремонт,,3,5,Театральна,"50.444722, 30.518056",0.3357246740489097,1
https://rieltor.ua/flats-rent/view/10810782/,2.0,23000.0,99.0,ПРЕМІУМ,Солом'янський,"Липківского Василя вул. (Урицького), 37Б",50.43013382,30.47842789,,5,Бетонно монолітний,Роздільне,Дизайнерський ремонт,,2,5,Вокзальна,"50.441667, 30.4875",1.4343893024264427,1
https://rieltor.ua/flats-rent/view/10640780/,3.0,16000.0,122.0,ПРЕМІУМ,Шевченківський,"Дегтярівська вул., 30В ",50.46355438,30.47049141,,4,Українська цегла,Роздільне,Чудовий стан,,3,4,Лук'янівська,"50.462222, 30.481667",0.8048095771992358,1
https://rieltor.ua/flats-rent/view/10813325/,3.0,48022.0,182.0,ПРЕМІУМ,Печерський,"Драгомирова вул., 20",50.40929031,30.54389763,,15,Бетонно монолітний,Кухня-вітальня,Дизайнерський ремонт,,3,5,Дружби народів,"50.418056, 30.545",0.9778251427509912,1
https://rieltor.ua/flats-rent/view/10832437/,2.0,16000.0,90.0,ПРЕМІУМ,Печерський,"Федорова Івана вул., 9",50.42778397,30.51956177,Олімпійська,8,Стара цегла,Студія,Євроремонт,,3,4,Олімпійська,"50.431944, 30.516389",0.5142786002456483,1
https://rieltor.ua/flats-rent/view/10833506/,2.0,14500.0,77.0,ПРЕМІУМ,Дніпровський,"Євгена Маланюка вул. (Сагайдака Степана), 101",50.45950699,30.58377457,,5,None,Кухня-вітальня,Євроремонт,,1,4,Лівобережна,"50.451389, 30.598889",1.3999276977242807,1
https://rieltor.ua/flats-rent/view/10826467/,1.0,14500.0,83.0,ПРЕМІУМ,Дніпровський,"Микільсько-Слобідська вул., 8",50.46063614,30.5833683,,5,Бетонно монолітний,Роздільне,Євроремонт,,1,4,Лівобережна,"50.451389, 30.598889",1.50485413382941,1
https://rieltor.ua/flats-rent/view/10796519/,3.0,27705.0,205.0,ПРЕМІУМ,Печерський,"Лабораторний пров., 6",50.42630386,30.52474594,Палац Україна,16,Бетонно монолітний,Роздільне,Дизайнерський ремонт,,3,5,"Палац ""Україна""","50.420833, 30.520833",0.6685133476915736,1
https://rieltor.ua/flats-rent/view/10802064/,2.0,22000.0,105.0,ПРЕМІУМ,Шевченківський,"Пушкінська вул., 31б",50.44191742,30.51761055,,4,Дореволюційний,Суміжно-роздільна,Євроремонт,,3,4,Площа Льва Толстого,"50.439444, 30.516944",0.2790530875264077,1
https://rieltor.ua/flats-rent/view/10814442/,2.0,33246.0,89.0,ПРЕМІУМ,Шевченківський,"Бульварно-Кудрявська вул. (Воровського), 17",50.45244217,30.50216103,,8,Бетонно монолітний,Суміжно-роздільна,Перша здача,,3,2,Золоті ворота,"50.448333, 30.513333",0.9134927437250924,1
https://rieltor.ua/flats-rent/view/10831724/,2.0,24000.0,100.0,ПРЕМІУМ,Солом'янський,"Липківского Василя вул. (Урицького), 38",50.43258286,30.47502327,,4,Бетонно монолітний,Роздільне,Перша здача,,2,2,Вокзальна,"50.441667, 30.4875",1.3420643374925616,1
https://rieltor.ua/flats-rent/view/10824320/,1.0,14500.0,89.0,ПРЕМІУМ,Дніпровський,"Євгена Маланюка вул. (Сагайдака Степана), 101ш",50.45891953,30.58578491,,5,Бетонно монолітний,Роздільне,Євроремонт,,1,4,Лівобережна,"50.451389, 30.598889",1.249728247428284,1
https://rieltor.ua/flats-rent/view/10814045/,2.0,33246.0,79.0,ПРЕМІУМ,Шевченківський,"Бульварно-Кудрявська вул. (Воровського), 17",50.45244217,30.50216103,,8,Українська цегла,Роздільне,Дизайнерський ремонт,,3,5,Золоті ворота,"50.448333, 30.513333",0.9134927437250924,1
https://rieltor.ua/flats-rent/view/10796369/,3.0,29552.0,210.0,ПРЕМІУМ,Печерський,"Лабораторний пров., 6",50.42630386,30.52474594,Олімпійська,16,Українська цегла,Роздільне,Євроремонт,,3,4,"Палац ""Україна""","50.420833, 30.520833",0.6685133476915736,1
https://rieltor.ua/flats-rent/view/10801743/,2.0,22000.0,95.0,ПРЕМІУМ,Шевченківський,"Пушкінська вул., 31б",50.44191742,30.51761055,,4,Сталінка,Студія,Євроремонт,,3,4,Площа Льва Толстого,"50.439444, 30.516944",0.2790530875264077,1
https://rieltor.ua/flats-rent/view/10801907/,3.0,19900.0,196.0,ПРЕМІУМ,Дніпровський,"Окіпної Раїси вул., 10а",50.44819641,30.58986664,,6,None,Кухня-вітальня,Євроремонт,,1,4,Лівобережна,"50.451389, 30.598889",0.7308302412687705,1
https://rieltor.ua/flats-rent/view/10814785/,1.0,13000.0,63.0,ПРЕМІУМ,Голосіївський,"Антоновича вул. (Горького), 102",50.42386246,30.51535606,Палац Україна,11,Стара цегла,Роздільне,Євроремонт,,2,4,"Палац ""Україна""","50.420833, 30.520833",0.5138378221673536,1
https://rieltor.ua/flats-rent/view/10790412/,3.0,19000.0,165.0,ПРЕМІУМ,Печерський,"Велика Васильківська вул. (Червоноармійська), 130",50.41688919,30.52323341,Либідська,4,Стара цегла,Роздільне,Дизайнерський ремонт,,3,5,"Палац ""Україна""","50.420833, 30.520833",0.4703547467474215,1
https://rieltor.ua/flats-rent/view/10808121/,2.0,23000.0,95.0,ПРЕМІУМ,Солом'янський,"Липківского Василя вул. (Урицького), 37б",50.43058395,30.47823715,,5,Бетонно монолітний,Студія,Євроремонт,,2,4,Вокзальна,"50.441667, 30.4875",1.396115798116493,1
https://rieltor.ua/flats-rent/view/10817098/,3.0,20317.0,131.0,ПРЕМІУМ,Голосіївський,"Казимира Малевича вул. (Боженка), 37/41",50.42594147,30.51308441,Олімпійська,2,Українська цегла,Роздільне,Євроремонт,,2,4,Олімпійська,"50.431944, 30.516389",0.7073078980511233,1
https://rieltor.ua/flats-rent/view/10819618/,2.0,25858.0,115.0,ПРЕМІУМ,Печерський,"Євгена Коновальця вул. (Щорса), 44а",50.4232254,30.53857231,,3,Бетонно монолітний,Суміжно-роздільна,Дизайнерський ремонт,,3,5,Печерська,"50.4275, 30.538889",0.475842982884079,1
https://rieltor.ua/flats-rent/view/10829036/,2.0,11000.0,83.0,ПРЕМІУМ,Печерський,"Михайла Бойчука вул. (Кіквідзе), 18б",50.41370773,30.5472641,,3,Стара цегла,Суміжна,Хороший стан,,3,3,Дружби народів,"50.418056, 30.545",0.509423977144823,1
https://rieltor.ua/flats-rent/view/10819583/,2.0,25858.0,116.0,ПРЕМІУМ,Печерський,"Євгена Коновальця вул. (Щорса), 44а",50.4232254,30.53857231,,3,Українська цегла,Роздільне,Євроремонт,,3,4,Печерська,"50.4275, 30.538889",0.475842982884079,1
https://rieltor.ua/flats-rent/view/10817040/,3.0,20317.0,119.0,ПРЕМІУМ,Голосіївський,"Казимира Малевича вул. (Боженка), 37/41",50.42594147,30.51308441,Олімпійська,2,Українська цегла,Роздільне,Євроремонт,,2,4,Олімпійська,"50.431944, 30.516389",0.7073078980511233,1
https://rieltor.ua/flats-rent/view/10828239/,2.0,11000.0,76.0,ПРЕМІУМ,Печерський,"Михайла Бойчука вул. (Кіквідзе), 18б",50.41370773,30.5472641,,3,Українська цегла,Суміжна,Євроремонт,,3,4,Дружби народів,"50.418056, 30.545",0.509423977144823,1
https://rieltor.ua/flats-rent/view/10588507/,2.0,30000.0,97.0,ПРЕМІУМ,Шевченківський,"Чорновола В'ячеслава вул., 27",50.45363235,30.4850769,,9,Українська цегла,Кухня-вітальня,Дизайнерський ремонт,,3,5,Лук'янівська,"50.462222, 30.481667",0.9851573718087973,1
https://rieltor.ua/flats-rent/view/10815545/,1.0,13000.0,66.0,ПРЕМІУМ,Голосіївський,"Антоновича вул. (Горького), 102",50.42386246,30.51535606,Палац Україна,11,Українська цегла,Роздільне,Євроремонт,,2,4,"Палац ""Україна""","50.420833, 30.520833",0.5138378221673536,1
https://rieltor.ua/flats-rent/view/10747708/,2.0,29552.0,65.0,ПРЕМІУМ,Оболонський,"Оболонський просп., 26",50.5135994,30.50030136,Героїв Дніпра,15,Українська цегла,Роздільне,Дизайнерський ремонт,,2,5,Мінська,"50.512222, 30.498333",0.2069527053292421,1
https://rieltor.ua/flats-rent/view/10827895/,1.0,25858.0,110.0,ПРЕМІУМ,Печерський,"Джона Маккейна вул. (Кудрі Івана), 7",50.41595459,30.53064728,Либідська,10,Бетонно монолітний,Роздільне,Євроремонт,,3,4,"Палац ""Україна""","50.420833, 30.520833",0.8819115256899043,1
https://rieltor.ua/flats-rent/view/10834710/,4.0,55410.0,288.0,ПРЕМІУМ,Печерський,"Звіринецька вул., 59",50.40776825,30.55524063,,11,None,Роздільне,Дизайнерський ремонт,,3,5,Видубичі,"50.402222, 30.560833",0.7330889652254532,1
https://rieltor.ua/flats-rent/view/10770722/,2.0,15700.0,87.0,ПРЕМІУМ,Оболонський,"Балтійський пров., 3",50.49783325,30.46746826,,11,Кухня-вітальня,Кухня-вітальня,Євроремонт,,2,4,Оболонь,"50.501111, 30.498056",2.193939962019276,2
https://rieltor.ua/flats-rent/view/10743328/,2.0,29552.0,71.0,ПРЕМІУМ,Оболонський,"Оболонський просп., 26",50.51319885,30.50025749,Мінська,15,Кухня-вітальня,Кухня-вітальня,Дизайнерський ремонт,,2,5,Мінська,"50.512222, 30.498333",0.1741155737648856,1
https://rieltor.ua/flats-rent/view/10801725/,2.0,20317.0,99.0,ПРЕМІУМ,Дніпровський,"Микільсько-Слобідська вул., 3а",50.45006561,30.58641624,,18,Кухня-вітальня,Кухня-вітальня,Дизайнерський ремонт,,1,5,Гідропарк,"50.445556, 30.576944",0.8374275697704137,1
https://rieltor.ua/flats-rent/view/10821836/,2.0,29552.0,102.0,ПРЕМІУМ,Печерський,"Джона Маккейна вул. (Кудрі Івана), 7",50.41595459,30.53064728,Либідська,10,Бетонно монолітний,Суміжно-роздільна,Чудовий стан,,3,4,"Палац ""Україна""","50.420833, 30.520833",0.8819115256899043,1
https://rieltor.ua/flats-rent/view/10757459/,3.0,44328.0,172.0,ПРЕМІУМ,Печерський,"Драгомирова вул., 3",50.41259384,30.54688644,,6,None,Роздільне,Дизайнерський ремонт,,3,5,Дружби народів,"50.418056, 30.545",0.6218985429740524,1
https://rieltor.ua/flats-rent/view/10823138/,4.0,173618.0,218.0,ПРЕМІУМ,Печерський,"Драгомирова вул., 19Б",50.4071579,30.54362679,,14,None,Роздільне,Чудовий стан,,3,4,Дружби народів,"50.418056, 30.545",1.215713797109014,1
https://rieltor.ua/flats-rent/view/10824041/,1.0,44328.0,106.0,ПРЕМІУМ,Голосіївський,"Деміївська вул., 29",50.40247726,30.51112747,Деміївська,11,None,Роздільне,Дизайнерський ремонт,,2,5,Деміївська,"50.404792, 30.516833",0.4793341074407724,1
https://rieltor.ua/flats-rent/view/10832477/,2.0,14500.0,77.0,ПРЕМІУМ,Подільський,"Тираспольська вул., 54",50.48158646,30.41464043,,3,Бетонно монолітний,Роздільне,Євроремонт,,2,4,Сирець,"50.476111, 30.430556",1.2802330841850256,1
https://rieltor.ua/flats-rent/view/10826886/,1.0,14000.0,76.0,ПРЕМІУМ,Дніпровський,"Регенераторна вул., 4 к1",50.4377327,30.62266541,,1,Бетонно монолітний,Кухня-вітальня,Євроремонт,,1,4,Дарниця,"50.455556, 30.613056",2.095412568997684,2
https://rieltor.ua/flats-rent/view/10828348/,2.0,11000.0,83.0,ПРЕМІУМ,Печерський,"Михайла Бойчука вул. (Кіквідзе), 18б",50.41370773,30.5472641,,3,None,Суміжна,Чудовий стан,,3,4,Дружби народів,"50.418056, 30.545",0.509423977144823,1
https://rieltor.ua/flats-rent/view/10825749/,2.0,27705.0,126.0,ПРЕМІУМ,Печерський,"Гусовського вул., 12/7",50.43292999,30.540205,,2,Дореволюційний,Роздільне,Євроремонт,,3,4,Печерська,"50.4275, 30.538889",0.610940624506319,1
https://rieltor.ua/flats-rent/view/10825780/,2.0,31399.0,163.0,ПРЕМІУМ,Печерський,"Старонаводницька вул., 6 Б",50.42742157,30.54608727,,10,Бетонно монолітний,Роздільне,Євроремонт,,3,4,Печерська,"50.4275, 30.538889",0.5099801683951352,1
https://rieltor.ua/flats-rent/view/10635352/,3.0,36000.0,213.0,ПРЕМІУМ,Печерський,"Князів Острозьких вул. (Московська), 46/2",50.43246841,30.54452705,,4,Бетонно монолітний,Роздільне,Дизайнерський ремонт,,3,5,Печерська,"50.4275, 30.538889",0.6816925663450604,1
https://rieltor.ua/flats-rent/view/10602691/,1.0,17000.0,79.0,ПРЕМІУМ,Голосіївський,"Дубініна Володі вул., 2",50.39024353,30.49715614,Васильківська,2,Бетонно монолітний,Суміжна,Дизайнерський ремонт,,2,5,Васильківська,"50.393333, 30.488056",0.7308814334719674,1
https://rieltor.ua/flats-rent/view/10809628/,2.0,10000.0,90.0,ПРЕМІУМ,Печерський,"Євгена Коновальця вул. (Щорса), 15",50.42527771,30.52554131,Палац Україна,3,Бетонно монолітний,Роздільне,Євроремонт,,3,4,"Палац ""Україна""","50.420833, 30.520833",0.5962560338991828,1
https://rieltor.ua/flats-rent/view/10798867/,2.0,25858.0,100.0,ПРЕМІУМ,Печерський,"Велика Васильківська вул. (Червоноармійська), 29",50.43817139,30.51641846,Площа Льва Толстого,7,Сталінка,Суміжно-роздільна,Дизайнерський ремонт,,3,5,Площа Льва Толстого,"50.439444, 30.516944",0.1463205241754405,1
https://rieltor.ua/flats-rent/view/10826334/,3.0,36940.0,227.0,ПРЕМІУМ,Печерський,"Василя Тютюнника вул. (Барбюса Анрі), 37/1",50.42111969,30.5263195,Палац Україна,10,Бетонно монолітний,Роздільне,Дизайнерський ремонт,,3,5,"Палац ""Україна""","50.420833, 30.520833",0.3900067764838144,1
https://rieltor.ua/flats-rent/view/10802870/,1.0,9500.0,65.5,ПРЕМІУМ,Печерський,"Цитадельна вул., 5/9",50.43286896,30.54909515,,4,Сталінка,Роздільне,Хороший стан,,3,3,Печерська,"50.4275, 30.538889",0.9375733566440808,1
https://rieltor.ua/flats-rent/view/10826059/,2.0,27705.0,126.0,ПРЕМІУМ,Печерський,"Гусовського вул., 12/7",50.43292999,30.540205,,2,Сталінка,Роздільне,Дизайнерський ремонт,,3,5,Печерська,"50.4275, 30.538889",0.610940624506319,1
https://rieltor.ua/flats-rent/view/10825358/,2.0,31399.0,153.0,ПРЕМІУМ,Печерський,"Старонаводницька вул., 6б",50.42742157,30.54608727,,10,Українська цегла,Роздільне,Дизайнерський ремонт,,3,5,Печерська,"50.4275, 30.538889",0.5099801683951352,1
https://rieltor.ua/flats-rent/view/10706919/,4.0,30000.0,222.0,ПРЕМІУМ,Печерський,"Євгена Коновальця вул. (Щорса), 32в",50.42521286,30.53158951,,17,Українська цегла,Кухня-вітальня,Євроремонт,,3,4,Печерська,"50.4275, 30.538889",0.5762444126468577,1
https://rieltor.ua/flats-rent/view/10833923/,2.0,18000.0,99.0,ПРЕМІУМ,Шевченківський,"Глибочицька вул., 13",50.46181488,30.489048,,5,Бетонно монолітний,Роздільне,Євроремонт,,3,4,Лук'янівська,"50.462222, 30.481667",0.5244255668963691,1
https://rieltor.ua/flats-rent/view/10830388/,2.0,11500.0,72.5,ПРЕМІУМ,Дніпровський,"Дарницький бульв., 4",50.46013641,30.61600494,,7,Стара цегла,Роздільне,Євроремонт,,1,4,Дарниця,"50.455556, 30.613056",0.5504418381024272,1
https://rieltor.ua/flats-rent/view/10834074/,2.0,25000.0,95.0,ПРЕМІУМ,Печерський,"Велика Васильківська вул. (Червоноармійська), 47",50.43496323,30.51642036,Олімпійська,3,Сталінка,Роздільне,Євроремонт,,3,4,Олімпійська,"50.431944, 30.516389",0.335730406041618,1
https://rieltor.ua/flats-rent/view/10834682/,2.0,18000.0,109.0,ПРЕМІУМ,Шевченківський,"Глибочицька вул., 13",50.46181488,30.489048,,5,Бетонно монолітний,Роздільне,Дизайнерський ремонт,,3,5,Лук'янівська,"50.462222, 30.481667",0.5244255668963691,1
https://rieltor.ua/flats-rent/view/10826308/,3.0,36940.0,227.0,ПРЕМІУМ,Печерський,"Василя Тютюнника вул. (Барбюса Анрі), 37/1",50.42111969,30.5263195,Палац Україна,10,Бетонно монолітний,Роздільне,Євроремонт,,3,4,"Палац ""Україна""","50.420833, 30.520833",0.3900067764838144,1
https://rieltor.ua/flats-rent/view/10798779/,2.0,25858.0,96.0,ПРЕМІУМ,Печерський,"Велика Васильківська вул. (Червоноармійська), 29",50.43817139,30.51641846,Площа Льва Толстого,7,Сталінка,Студія,Євроремонт,,3,4,Площа Льва Толстого,"50.439444, 30.516944",0.1463205241754405,1
https://rieltor.ua/flats-rent/view/10833580/,2.0,11000.0,82.5,ПРЕМІУМ,Дніпровський,"Дарницький бульв., 4а",50.46053314,30.61709785,,7,None,Роздільне,Євроремонт,,1,4,Дарниця,"50.455556, 30.613056",0.6230227257739153,1
https://rieltor.ua/flats-rent/view/10802402/,1.0,9500.0,68.0,ПРЕМІУМ,Печерський,"Цитадельна вул., 5/9",50.43286896,30.54909515,,4,Стара цегла,Роздільне,Євроремонт,,3,4,Печерська,"50.4275, 30.538889",0.9375733566440808,1
https://rieltor.ua/flats-rent/view/10771257/,5.0,55410.0,429.0,ПРЕМІУМ,Шевченківський,"Рейтарська вул., 28",50.45336533,30.50911903,,2,Дореволюційний,Роздільне,Євроремонт,,3,4,Золоті ворота,"50.448333, 30.513333",0.6341418795254985,1
https://rieltor.ua/flats-rent/view/10829066/,2.0,15700.0,87.0,ПРЕМІУМ,Оболонський,"Балтійський пров., 3А",50.49888992,30.46729279,,11,Бетонно монолітний,Роздільне,Євроремонт,,2,4,Оболонь,"50.501111, 30.498056",2.18981261736828,2
https://rieltor.ua/flats-rent/view/10833460/,1.0,12000.0,38.0,ПРЕМІУМ,Дніпровський,"Євгена Сверстюка вул. (Раскової Марини), 6б",50.44558334,30.60499954,,7,None,Студія,Євроремонт,,1,4,Лівобережна,"50.451389, 30.598889",0.7771381310747126,1
https://rieltor.ua/flats-rent/view/10830391/,2.0,10500.0,81.0,ПРЕМІУМ,Дніпровський,"Дарницький бульв., 4",50.46013641,30.61600494,,7,None,Роздільне,Євроремонт,,1,4,Дарниця,"50.455556, 30.613056",0.5504418381024272,1
https://rieltor.ua/flats-rent/view/10810446/,2.0,12000.0,115.0,ПРЕМІУМ,Голосіївський,"Тарасівська вул., 20",50.43723297,30.50668144,Площа Льва Толстого,2,Стара цегла,Роздільне,Євроремонт,,2,4,Площа Льва Толстого,"50.439444, 30.516944",0.7672610563594765,1
https://rieltor.ua/flats-rent/view/10827952/,1.0,29552.0,92.0,ПРЕМІУМ,Печерський,"Підвисоцького професора вул., 4в",50.41095734,30.54307938,,5,Бетонно монолітний,Студія,Дизайнерський ремонт,,3,5,Дружби народів,"50.418056, 30.545",0.8009805398008899,1
https://rieltor.ua/flats-rent/view/10833440/,2.0,25000.0,90.0,ПРЕМІУМ,Печерський,"Велика Васильківська вул. (Червоноармійська), 47",50.43496323,30.51642036,Олімпійська,3,None,Кухня-вітальня,Євроремонт,,3,4,Олімпійська,"50.431944, 30.516389",0.335730406041618,1
https://rieltor.ua/flats-rent/view/10825497/,2.0,14000.0,140.0,ПРЕМІУМ,Дарницький,"Мишуги Олександра вул., 8",50.396698,30.63688278,,7,Бетонно монолітний,Роздільне,Євроремонт,,1,4,Позняки,"50.398056, 30.633333",0.2934494896023842,1
https://rieltor.ua/flats-rent/view/10833477/,2.0,15000.0,100.0,ПРЕМІУМ,Дніпровський,"Соборності просп. (Возз'єднання), 30",50.43882751,30.61017227,,16,None,Кухня-вітальня,Євроремонт,,1,4,Лівобережна,"50.451389, 30.598889",1.6091435709265525,1
https://rieltor.ua/flats-rent/view/10818650/,3.0,25000.0,149.0,ПРЕМІУМ,Печерський,"Михайла Омеляновича-Павленка вул. (Суворова), 11",50.43795013,30.54795074,,11,Українська цегла,Роздільне,Євроремонт,,3,4,Арсенальна,"50.443889, 30.545556",0.6818003666175143,1
https://rieltor.ua/flats-rent/view/10832828/,1.0,12000.0,45.0,ПРЕМІУМ,Дніпровський,"Євгена Сверстюка вул. (Раскової Марини), 6в",50.44661331,30.60476494,,7,Бетонно монолітний,Студія,Євроремонт,,1,4,Лівобережна,"50.451389, 30.598889",0.6746034395393242,1
https://rieltor.ua/flats-rent/view/10834440/,1.0,10000.0,92.0,ПРЕМІУМ,Дарницький,"Вишняківська вул., 3",50.39360428,30.65117645,,6,None,Роздільне,Євроремонт,,1,4,Харківська,"50.400833, 30.652222",0.8072063346779921,1
https://rieltor.ua/flats-rent/view/10832947/,1.0,17000.0,72.0,ПРЕМІУМ,Подільський,"Тираспольська вул., 60",50.4811821,30.42612457,,10,None,None,Перша здача,,2,2,Сирець,"50.476111, 30.430556",0.6452038372913091,1
https://rieltor.ua/flats-rent/view/10828485/,2.0,33500.0,143.0,ПРЕМІУМ,Печерський,"Старонаводницька вул., 6Б",50.42742157,30.54608727,,16,Українська цегла,Роздільне,Хороший стан,,3,3,Печерська,"50.4275, 30.538889",0.5099801683951352,1
https://rieltor.ua/flats-rent/view/10833903/,1.0,11999.0,40.0,ПРЕМІУМ,Дніпровський,"Євгена Сверстюка вул. (Раскової Марини), 6г",50.44552231,30.60509682,,7,None,Студія,Євроремонт,,1,4,Лівобережна,"50.451389, 30.598889",0.786612730211584,1
https://rieltor.ua/flats-rent/view/10832093/,2.0,15000.0,105.0,ПРЕМІУМ,Дніпровський,"Соборності просп. (Возз'єднання), 30",50.43882751,30.61017227,,16,Бетонно монолітний,Роздільне,Євроремонт,,1,4,Лівобережна,"50.451389, 30.598889",1.6091435709265525,1
https://rieltor.ua/flats-rent/view/10770562/,2.0,55410.0,138.0,ПРЕМІУМ,Печерський,"Драгомирова вул., 11",50.40934753,30.54587746,,6,Бетонно монолітний,Роздільне,Дизайнерський ремонт,,3,5,Дружби народів,"50.418056, 30.545",0.9703316890640064,1
https://rieltor.ua/flats-rent/view/10834748/,2.0,18000.0,93.0,ПРЕМІУМ,Дарницький,"Дніпровська наб., 18б",50.3985939,30.61264801,,18,None,Роздільне,Євроремонт,,1,4,Осокорки,"50.395278, 30.616111",0.4429468597463879,1
https://rieltor.ua/flats-rent/view/10826998/,3.0,18000.0,214.0,ПРЕМІУМ,Дніпровський,"Микільсько-Слобідська вул., 1-А",50.45454407,30.59316635,,13,None,None,Євроремонт,,1,4,Лівобережна,"50.451389, 30.598889",0.5359416218693916,1
https://rieltor.ua/flats-rent/view/10011042/,3.0,19000.0,168.0,ПРЕМІУМ,Дарницький,"Урлівська вул., 8",,,,14,None,Роздільне,Євроремонт,,1,4,,,0.0,1
https://rieltor.ua/flats-rent/view/10821330/,2.0,20000.0,84.0,ПРЕМІУМ,Дарницький,"Зарічна вул., 1в",50.39575195,30.60063934,,25,Українська цегла,Кухня-вітальня,Євроремонт,,1,4,Славутич,"50.394167, 30.604167",0.3059257545385368,1
https://rieltor.ua/flats-rent/view/10834508/,1.0,7500.0,58.0,ПРЕМІУМ,Дарницький,"Юрія Литвинського вул. (Російська), 50",50.42519379,30.6607666,,2,Українська цегла,None,Чудовий стан,,1,4,Вирлиця,"50.403333, 30.666111",2.4601294156169,2
https://rieltor.ua/flats-rent/view/10811169/,3.0,40634.0,212.0,ПРЕМІУМ,Печерський,"Філатова академіка вул., 2/1",50.41821671,30.52953529,Либідська,8,Типова панель,Роздільне,Дизайнерський ремонт,,3,5,"Палац ""Україна""","50.420833, 30.520833",0.6817380036755234,1
https://rieltor.ua/flats-rent/view/10810428/,2.0,12000.0,110.0,ПРЕМІУМ,Голосіївський,"Тарасівська вул., 20",50.43723297,30.50668144,Площа Льва Толстого,2,Українська цегла,Роздільне,Євроремонт,,2,4,Площа Льва Толстого,"50.439444, 30.516944",0.7672610563594765,1
https://rieltor.ua/flats-rent/view/10320887/,2.0,11000.0,81.0,ПРЕМІУМ,Печерський,"Фортечний тупик (Тверський), 6/8",50.42290115,30.53203011,,1,Стара цегла,Суміжна,Євроремонт,,3,4,Печерська,"50.4275, 30.538889",0.7053972121190218,1
https://rieltor.ua/flats-rent/view/10761201/,2.0,20000.0,134.0,ПРЕМІУМ,Шевченківський,"Десятинний пров., 7",50.45706558,30.51633072,Поштова площа,3,Дореволюційний,Роздільне,Євроремонт,,3,4,Поштова площа,"50.459167, 30.525556",0.6936145307931623,1
https://rieltor.ua/flats-rent/view/10818215/,3.0,30000.0,192.0,ПРЕМІУМ,Шевченківський,"Назарівська вул. (Вєтрова), 11",50.44282913,30.49997902,,7,Бетонно монолітний,Роздільне,Дизайнерський ремонт,,3,5,Університет,"50.444167, 30.505833",0.4404244530736651,1
https://rieltor.ua/flats-rent/view/10834445/,1.0,9000.0,62.0,ПРЕМІУМ,Дніпровський,"Дніпровська наб., 7",50.42487717,30.59321404,,12,Стара цегла,Роздільне,Євроремонт,,1,4,Гідропарк,"50.445556, 30.576944",2.571970266711687,2
https://rieltor.ua/flats-rent/view/10815208/,4.0,24000.0,154.0,ПРЕМІУМ,Оболонський,"Володимира Івасюка просп. (Героїв Сталінграда), 2д",50.48987579,30.52966881,,16,None,Кухня-вітальня,Дизайнерський ремонт,,2,5,Почайна,"50.486667, 30.497778",2.284193716752399,2
https://rieltor.ua/flats-rent/view/10812068/,3.0,40634.0,212.0,ПРЕМІУМ,Печерський,"Філатова академіка вул., 2/1",50.41821671,30.52953529,Либідська,8,Українська цегла,Роздільне,Дизайнерський ремонт,,3,5,"Палац ""Україна""","50.420833, 30.520833",0.6817380036755234,1
https://rieltor.ua/flats-rent/view/10683779/,2.0,21794.6,130.0,ПРЕМІУМ,Печерський,"Бессарабська пл., 5а",50.44327164,30.52246857,,5,Дореволюційний,Роздільне,Євроремонт,,3,4,Театральна,"50.444722, 30.518056",0.3516295330963052,1
https://rieltor.ua/flats-rent/view/10834580/,2.0,16000.0,138.0,ПРЕМІУМ,Солом'янський,"Лобановського просп. (Червонозоряний), 6г",50.42074966,30.46520424,,8,Бетонно монолітний,Роздільне,Хороший стан,,2,3,Вокзальна,"50.441667, 30.4875",2.811376106138911,2
https://rieltor.ua/flats-rent/view/10823808/,3.0,15500.0,128.0,ПРЕМІУМ,Дарницький,"Срібнокільська вул., 14",50.39909363,30.62282944,,4,None,Роздільне,Євроремонт,,1,4,Осокорки,"50.395278, 30.616111",0.6378070813868826,1
https://rieltor.ua/flats-rent/view/10823642/,2.0,18000.0,119.0,ПРЕМІУМ,Оболонський,"Гулака Миколи вул., 4",50.51608658,30.45805359,,10,None,Роздільне,Євроремонт,,2,4,Мінська,"50.512222, 30.498333",2.88029155181143,2
https://rieltor.ua/flats-rent/view/10834543/,1.0,9000.0,64.0,ПРЕМІУМ,Дніпровський,"Дніпровська наб., 7",50.42487717,30.59321404,,12,None,Роздільне,Хороший стан,,1,3,Гідропарк,"50.445556, 30.576944",2.571970266711687,2
https://rieltor.ua/flats-rent/view/10716443/,2.0,15000.0,104.0,ПРЕМІУМ,Дніпровський,"Юрія Поправки вул. (Миколи Лебедєва), 14",50.45766068,30.62759209,,23,Кухня-вітальня,Кухня-вітальня,Євроремонт,,1,4,Чернігівська,"50.459722, 30.630833",0.3243032523479378,1
https://rieltor.ua/flats-rent/view/10831689/,1.0,14000.0,66.0,ПРЕМІУМ,Солом'янський,"Польова вул., 73",50.43517685,30.4457016,,22,Бетонно монолітний,Роздільне,Євроремонт,,2,4,Шулявська,"50.455, 30.445278",2.2044377917783944,2
https://rieltor.ua/flats-rent/view/10828120/,1.0,11500.0,52.0,ПРЕМІУМ,Солом'янський,"Польова вул., 73",50.43517685,30.4457016,,14,Бетонно монолітний,Студія,Євроремонт,,2,4,Шулявська,"50.455, 30.445278",2.2044377917783944,2
https://rieltor.ua/flats-rent/view/10830706/,1.0,11000.0,49.0,ПРЕМІУМ,Солом'янський,"Польова вул., 73",50.43517685,30.4457016,,22,Бетонно монолітний,Студія,Євроремонт,,2,4,Шулявська,"50.455, 30.445278",2.2044377917783944,2
https://rieltor.ua/flats-rent/view/10834146/,2.0,18000.0,95.0,ПРЕМІУМ,Шевченківський,"Глибочицька вул., 13",50.46181488,30.489048,,5,Бетонно монолітний,Кухня-вітальня,Євроремонт,,3,4,Лук'янівська,"50.462222, 30.481667",0.5244255668963691,1
https://rieltor.ua/flats-rent/view/10834483/,1.0,8999.0,62.4,ПРЕМІУМ,Дніпровський,"Дніпровська наб., 7",50.42487717,30.59321404,,12,None,Роздільне,Хороший стан,,1,3,Гідропарк,"50.445556, 30.576944",2.571970266711687,2
https://rieltor.ua/flats-rent/view/10817906/,3.0,30000.0,190.0,ПРЕМІУМ,Шевченківський,"Назарівська вул. (Вєтрова), 11",50.44282913,30.49997902,,7,Бетонно монолітний,Студія,Євроремонт,,3,4,Університет,"50.444167, 30.505833",0.4404244530736651,1
https://rieltor.ua/flats-rent/view/10761151/,2.0,20000.0,130.0,ПРЕМІУМ,Шевченківський,"Десятинний пров., 7",50.45706558,30.51633072,Поштова площа,3,Дореволюційний,Роздільне,Євроремонт,,3,4,Поштова площа,"50.459167, 30.525556",0.6936145307931623,1
https://rieltor.ua/flats-rent/view/10824532/,2.0,11000.0,71.0,ПРЕМІУМ,Печерський,"Фортечний тупик (Тверський), 6/8",50.42270279,30.53195763,,1,Стара цегла,Суміжна,Євроремонт,,3,4,Печерська,"50.4275, 30.538889",0.7250150664258418,1
https://rieltor.ua/flats-rent/view/10830845/,1.0,73880.0,114.0,ПРЕМІУМ,Печерський,"Федорова Івана вул., 2А",50.42884827,30.51995659,Олімпійська,15,Українська цегла,Роздільне,Чудовий стан,,3,4,Олімпійська,"50.431944, 30.516389",0.4270275370798969,1
https://rieltor.ua/flats-rent/view/10833805/,1.0,14000.0,81.0,ПРЕМІУМ,Голосіївський,"Саперно-Слобідська вул., 10",50.40379715,30.53113174,Деміївська,19,Бетонно монолітний,Роздільне,Дизайнерський ремонт,,2,5,Деміївська,"50.404792, 30.516833",1.019398734688633,1
https://rieltor.ua/flats-rent/view/10794399/,2.0,44328.0,190.0,ПРЕМІУМ,Шевченківський,"Шевченка Тараса бульв., 11",50.44258881,30.51583672,,8,None,Роздільне,Дизайнерський ремонт,,3,5,Театральна,"50.444722, 30.518056",0.2845367193921606,1
https://rieltor.ua/flats-rent/view/10819863/,2.0,20000.0,115.0,ПРЕМІУМ,Шевченківський,"Львівська пл, 4а",50.45280457,30.48217201,,5,Українська цегла,Студія,Євроремонт,,3,4,Лук'янівська,"50.462222, 30.481667",1.0477805335467925,1
https://rieltor.ua/flats-rent/view/10779838/,5.0,129290.0,310.0,ПРЕМІУМ,Подільський,"Щекавицька вул., 30/39",50.46977615,30.512537,Контрактова площа,9,Дореволюційний,Суміжно-роздільна,Дизайнерський ремонт,,2,5,Контрактова площа,"50.465, 30.516667",0.6062141511276533,1
https://rieltor.ua/flats-rent/view/10814691/,2.0,66492.0,210.0,ПРЕМІУМ,Печерський,"Іоана Павла II вул. (Лумумби Патріса), 6/1",50.42050171,30.53056717,Палац Україна,21,Бетонно монолітний,Суміжно-роздільна,Дизайнерський ремонт,,3,5,"Палац ""Україна""","50.420833, 30.520833",0.6906238369046059,1
https://rieltor.ua/flats-rent/view/10825563/,3.0,33246.0,206.5,ПРЕМІУМ,Печерський,"Лабораторний пров., 6",50.42630386,30.52474594,Палац Україна,13,Українська цегла,Роздільне,Євроремонт,,3,4,"Палац ""Україна""","50.420833, 30.520833",0.6685133476915736,1
